menu,price,genre,name,adress,tel,lat,lng,url
1リットル スーパードライ,1000,居酒屋、魚介料理・海鮮料理、おでん,茶屋町 まぐろや,大阪府 大阪市北区 芝田 1-15-7,06-6373-3676,34.7084332,135.4969484,https://tabelog.com/osaka/A2701/A270101/27017935/dtlmenu/drink/
<ドイツビール>ホフブロイ・ミュンヘン ラガーStyle ALC 5.5%,950,居酒屋、イタリアン、焼鳥,串焼き&ワイン ウナチッタ,大阪府 大阪市北区 曾根崎2-10-19 河合ビル B1F,050-5869-3208,34.7006896,135.5008728,https://tabelog.com/osaka/A2701/A270101/27058323/dtlmenu/drink/
<瓶ビール>サッポロ 赤星 中瓶,550,ダイニングバー、イタリアン、居酒屋,ワインとオマール海老の店 UOMO,大阪府 大阪市北区 梅田 1-1-3 大阪駅前第3ビル  B1F,050-5872-6838,34.6988257,135.4992804,https://tabelog.com/osaka/A2701/A270101/27061208/dtlmenu/drink/
<生ビール>アサヒエクストラコールド,935,懐石・会席料理、割烹・小料理、天ぷら,北瑞苑,大阪府 大阪市北区 曽根崎新地 2-3-21 ａｘビル　３Ｆ,050-5868-3897,34.6979945,135.4945578,https://tabelog.com/osaka/A2701/A270101/27000742/dtlmenu/drink/
<生ビール>ザ・プレミアム・モルツ 香るエール,550,ダイニングバー、イタリアン、居酒屋,ワインとオマール海老の店 UOMO,大阪府 大阪市北区 梅田 1-1-3 大阪駅前第3ビル  B1F,050-5872-6838,34.6988257,135.4992804,https://tabelog.com/osaka/A2701/A270101/27061208/dtlmenu/drink/
■キリン一番搾り,900,ステーキ、アメリカ料理、バー,THE COSMOPOLITAN GRILL BAR TERRACE,大阪府 大阪市北区 大深町 4-20 グランフロント大阪 南館 9F,050-5595-0903,34.7053491,135.4945979,https://tabelog.com/osaka/A2701/A270101/27072553/dtlmenu/drink/
■ギネススタウト,1050,ステーキ、アメリカ料理、バー,THE COSMOPOLITAN GRILL BAR TERRACE,大阪府 大阪市北区 大深町 4-20 グランフロント大阪 南館 9F,050-5595-0903,34.7053491,135.4945979,https://tabelog.com/osaka/A2701/A270101/27072553/dtlmenu/drink/
■コロナ エキストラ,1000,ステーキ、アメリカ料理、バー,THE COSMOPOLITAN GRILL BAR TERRACE,大阪府 大阪市北区 大深町 4-20 グランフロント大阪 南館 9F,050-5595-0903,34.7053491,135.4945979,https://tabelog.com/osaka/A2701/A270101/27072553/dtlmenu/drink/
■ハイネケン,1000,ステーキ、アメリカ料理、バー,THE COSMOPOLITAN GRILL BAR TERRACE,大阪府 大阪市北区 大深町 4-20 グランフロント大阪 南館 9F,050-5595-0903,34.7053491,135.4945979,https://tabelog.com/osaka/A2701/A270101/27072553/dtlmenu/drink/
■バドワイザー,900,ステーキ、アメリカ料理、バー,THE COSMOPOLITAN GRILL BAR TERRACE,大阪府 大阪市北区 大深町 4-20 グランフロント大阪 南館 9F,050-5595-0903,34.7053491,135.4945979,https://tabelog.com/osaka/A2701/A270101/27072553/dtlmenu/drink/
★Heineken ハイネケンビール,550,焼肉,万両 東天満店,大阪府 大阪市北区 天満 2-7-25 塩見ビル　１Ｆ,06-6882-0221,34.6938193,135.5173239,https://tabelog.com/osaka/A2701/A270103/27003763/dtlmenu/drink/
☆☆☆コロナ時代期間限定  1H飲み放題 790円☆☆☆,790,インド料理、インドカレー、居酒屋,インド料理 MAHARAJA,大阪府 大阪市北区 梅田 1-2-2-B1000 大阪駅前第2ビルB1,050-5869-5835,34.6989342,135.4979539,https://tabelog.com/osaka/A2701/A270101/27005099/dtlmenu/drink/
☆☆☆コロナ時代期間限定  生ビールなど1杯99円 ☆☆☆,99,インド料理、インドカレー、居酒屋,インド料理 MAHARAJA,大阪府 大阪市北区 梅田 1-2-2-B1000 大阪駅前第2ビルB1,050-5869-5835,34.6989342,135.4979539,https://tabelog.com/osaka/A2701/A270101/27005099/dtlmenu/drink/
《瓶ビール》アサヒ スーパードライ(中瓶/500ml),770,中華料理、広東料理、餃子,広東料理 民生 ヒルトンプラザウエスト店,大阪府 大阪市北区 梅田 2-2-2 ヒルトンプラザウエスト  B2F,050-5570-0315,34.6999702,135.4952544,https://tabelog.com/osaka/A2701/A270101/27006463/dtlmenu/drink/
《瓶ビール》アサヒ プレミアムビール “熟選”(中瓶/500ml),990,中華料理、広東料理、餃子,広東料理 民生 ヒルトンプラザウエスト店,大阪府 大阪市北区 梅田 2-2-2 ヒルトンプラザウエスト  B2F,050-5570-0315,34.6999702,135.4952544,https://tabelog.com/osaka/A2701/A270101/27006463/dtlmenu/drink/
《瓶ビール》青島ビール(小瓶/330ml),726,中華料理、広東料理、餃子,広東料理 民生 ヒルトンプラザウエスト店,大阪府 大阪市北区 梅田 2-2-2 ヒルトンプラザウエスト  B2F,050-5570-0315,34.6999702,135.4952544,https://tabelog.com/osaka/A2701/A270101/27006463/dtlmenu/drink/
《生ビール》アサヒ スーパードライ(中),748,中華料理、広東料理、餃子,広東料理 民生 ヒルトンプラザウエスト店,大阪府 大阪市北区 梅田 2-2-2 ヒルトンプラザウエスト  B2F,050-5570-0315,34.6999702,135.4952544,https://tabelog.com/osaka/A2701/A270101/27006463/dtlmenu/drink/
《生ビール》アサヒ スーパードライ(小),528,中華料理、広東料理、餃子,広東料理 民生 ヒルトンプラザウエスト店,大阪府 大阪市北区 梅田 2-2-2 ヒルトンプラザウエスト  B2F,050-5570-0315,34.6999702,135.4952544,https://tabelog.com/osaka/A2701/A270101/27006463/dtlmenu/drink/
【樽生】アサヒスーパードライ(中),380,ラーメン、居酒屋、バル・バール,肉太郎 梅田第3ビル店,大阪府 大阪市北区 梅田 1-1-3 大阪駅前第3ビル  B1F,050-5589-2617,34.6988257,135.4992804,https://tabelog.com/osaka/A2701/A270101/27077885/dtlmenu/drink/
【樽生】ヒューガルデン・ホワイト,1000,バル・バール、イタリアン、カフェ,ケラケラ クランツ,大阪府 大阪市北区 小松原町 2-4 大阪富国生命ビル　B2F,050-5868-2965,34.70217,135.5000915,https://tabelog.com/osaka/A2701/A270101/27053066/dtlmenu/drink/
【瓶ビール】アサヒスーパードライ,500,鍋（その他）、居酒屋、魚介料理・海鮮料理,本家 草鍋 えんや 天神橋店,大阪府 大阪市北区 天神橋 6-5-34,050-5872-7570,34.7089288,135.5117621,https://tabelog.com/osaka/A2701/A270103/27102320/dtlmenu/drink/
【瓶ビール】キリン,500,鍋（その他）、居酒屋、魚介料理・海鮮料理,本家 草鍋 えんや 天神橋店,大阪府 大阪市北区 天神橋 6-5-34,050-5872-7570,34.7089288,135.5117621,https://tabelog.com/osaka/A2701/A270103/27102320/dtlmenu/drink/
【瓶ビール】サッポロ,500,鍋（その他）、居酒屋、魚介料理・海鮮料理,本家 草鍋 えんや 天神橋店,大阪府 大阪市北区 天神橋 6-5-34,050-5872-7570,34.7089288,135.5117621,https://tabelog.com/osaka/A2701/A270103/27102320/dtlmenu/drink/
【生ビール】アサヒ ドライプレミアム,500,鍋（その他）、居酒屋、魚介料理・海鮮料理,本家 草鍋 えんや 天神橋店,大阪府 大阪市北区 天神橋 6-5-34,050-5872-7570,34.7089288,135.5117621,https://tabelog.com/osaka/A2701/A270103/27102320/dtlmenu/drink/
アサヒ,400,鍋（その他）、居酒屋、魚介料理・海鮮料理,本家 草鍋 えんや 天神橋店,大阪府 大阪市北区 天神橋 6-5-34,050-5872-7570,34.7089288,135.5117621,https://tabelog.com/osaka/A2701/A270103/27102320/dtlmenu/drink/
アサヒ  熟選,800,寿司、魚介料理・海鮮料理、割烹・小料理,梅田 鮨 個室 みや川,大阪府 大阪市北区 曾根崎2-8-7 コーストスタジョーネ 5F-B,050-5869-2782,34.6997226,135.5011282,https://tabelog.com/osaka/A2701/A270101/27119405/dtlmenu/drink/
アサヒ エクストラコールド生ビール(中),650,焼鳥、水炊き、親子丼,飛鳥,大阪府 大阪市北区 西天満 3-8-18 西天満ビューハイツ　１Ｆ,06-6361-0137,34.6952314,135.5078305,https://tabelog.com/osaka/A2701/A270103/27005051/dtlmenu/drink/
アサヒ スーパードライ,968,懐石・会席料理、魚介料理・海鮮料理、鍋（その他）,西梅田 禅園,大阪府 大阪市北区 梅田 2-5-25 ハービスプラザ  B2F,050-5590-0884,34.6984253,135.4926758,https://tabelog.com/osaka/A2701/A270101/27002685/dtlmenu/drink/
アサヒ スーパードライ,820,割烹・小料理、居酒屋,北新地 大和,大阪府 大阪市北区 堂島 1-1-20 パールプラザビル 3F,050-5868-3117,34.6963741,135.5000788,https://tabelog.com/osaka/A2701/A270101/27126698/dtlmenu/drink/
アサヒ スーパードライ,600,懐石・会席料理、割烹・小料理、京料理,おもてなし茶屋　咲扇,大阪府 大阪市北区 曽根崎新地 1-1-9 谷安キャバリエーレビル,06-6348-5557,34.6978481,135.498431,https://tabelog.com/osaka/A2701/A270102/27042295/dtlmenu/drink/
アサヒ スーパードライ,528,中華料理、魚介料理・海鮮料理、四川料理,中國菜 心香,大阪府 大阪市北区 西天満 5-6-26,050-5592-8286,34.6989007,135.5082172,https://tabelog.com/osaka/A2701/A270103/27085334/dtlmenu/drink/
アサヒ スーパードライ,750,居酒屋、魚介料理・海鮮料理、日本酒バー,炭と地酒とたしなみワイン Kai本店 醸す,大阪府 大阪市北区 堂島浜 1-1-15 堂浜第2ビル B1F,050-5570-8252,34.6957247,135.4999131,https://tabelog.com/osaka/A2701/A270101/27042896/dtlmenu/drink/
アサヒ スーパードライ,650,串揚げ・串かつ、居酒屋、和食（その他）,知留久 曽根崎本店,大阪府 大阪市北区 曽根崎 2-9-9,050-5596-7634,34.7002522,135.5009268,https://tabelog.com/osaka/A2701/A270101/27000479/dtlmenu/drink/
アサヒ スーパードライ,715,とんかつ、洋食、カレー（その他）,epais,大阪府 大阪市北区 曽根崎新地 1-9-3 ニュー華ビル 3F,050-5890-4534,34.6982594,135.4988228,https://tabelog.com/osaka/A2701/A270101/27072441/dtlmenu/drink/
アサヒ スーパードライ,638,イタリアン、ダイニングバー、ハンバーガー,TOLAH UMEDA,大阪府 大阪市北区 堂山町 7-22 ステージ中通りビル 4F,050-5570-8654,34.7035252,135.5024523,https://tabelog.com/osaka/A2701/A270101/27125282/dtlmenu/drink/
アサヒ スーパードライ 500ml 中瓶,735,韓国料理、韓国鍋、居酒屋,プロカンジャンケジャン 大阪店,大阪府 大阪市北区 曽根崎新地 1-5-24,050-5571-2678,34.6990236,135.5081067,https://tabelog.com/osaka/A2701/A270101/27065878/dtlmenu/drink/
アサヒ スーパードライ エクストラコールド,850,イタリアン、バー、バル・バール,ゼックスウエスト ザ バー,大阪府 大阪市北区 梅田 2-2-22 ハービスPLAZA ENT  7F,050-5868-9945,34.6997829,135.4945698,https://tabelog.com/osaka/A2701/A270101/27003895/dtlmenu/drink/
アサヒ スーパードライ 中瓶,730,焼肉、ステーキ、懐石・会席料理,北新地 すがはら,大阪府 大阪市北区 堂島 1-4-2 ビールディング北新地　２Ｆ,050-5868-7952,34.696101,135.4982009,https://tabelog.com/osaka/A2701/A270101/27000219/dtlmenu/drink/
アサヒ スーパードライ 大瓶,990,居酒屋、魚介料理・海鮮料理、日本酒バー,炭と地酒とたしなみワイン Kai本店 醸す,大阪府 大阪市北区 堂島浜 1-1-15 堂浜第2ビル B1F,050-5570-8252,34.6957247,135.4999131,https://tabelog.com/osaka/A2701/A270101/27042896/dtlmenu/drink/
アサヒ スーパードライ 小,880,イタリアン、創作料理、ダイニングバー,人家,大阪府 大阪市北区 曽根崎新地 1-3-3 好陽ビル　Ｂ１Ｆ,050-5590-9679,34.6973226,135.4969674,https://tabelog.com/osaka/A2701/A270101/27000741/dtlmenu/drink/
アサヒ スーパードライ 生,583,タイ料理、バル・バール、バイキング,クンテープ ルクア大阪店,大阪府 大阪市北区 梅田 3-1-3 ルクア大阪 B2F,050-5457-8789,34.7029403,135.4955499,https://tabelog.com/osaka/A2701/A270101/27101630/dtlmenu/drink/
アサヒ スーパードライ(中瓶),500,魚介料理・海鮮料理、居酒屋、日本酒バー,ひもの野郎 梅田第4ビル本店,大阪府 大阪市北区 梅田 1-11-4 大阪駅前第4ビル  B2-71号72号,090-2196-5186,34.7000328,135.4991214,https://tabelog.com/osaka/A2701/A270101/27062999/dtlmenu/drink/
アサヒ スーパードライ(小びん),770,懐石・会席料理、和食（その他）、魚介料理・海鮮料理,北新地 湯木 新店,大阪府 大阪市北区 堂島 1-5-39 マルタビル 1F,050-5869-6949,34.6961415,135.4969674,https://tabelog.com/osaka/A2701/A270101/27073634/dtlmenu/drink/
アサヒ スーパードライ(瓶),659,居酒屋、魚介料理・海鮮料理、ろばた焼き,鯛之鯛 梅田店,大阪府 大阪市北区 堂山町 1-2 R&Eビル B1F,050-5590-9175,34.7025117,135.5047002,https://tabelog.com/osaka/A2701/A270101/27091917/dtlmenu/drink/
アサヒ スーパードライ(瓶),1210,懐石・会席料理、割烹・小料理、ふぐ,雅しゅとうとう,大阪府 大阪市北区 堂島 1-5-2 フェザービル 1F,06-6348-0141,34.696056,135.4968569,https://tabelog.com/osaka/A2701/A270101/27012489/dtlmenu/drink/
アサヒ スーパードライ(生),550,ダイニングバー、イタリアン、バル・バール,イタリア酒場 エントラータ 茶屋町店,大阪府 大阪市北区 芝田 1-7-2 阪急かっぱ横丁  1F,050-5890-6738,34.7071744,135.4980634,https://tabelog.com/osaka/A2701/A270101/27058694/dtlmenu/drink/
アサヒ スーパードライ(生),550,イタリアン、バル・バール、パスタ,イタリア食堂 タベルナエントラータ 堂島店,大阪府 大阪市北区 堂島 2-1-27 桜橋千代田ビル1F,050-5869-6888,34.6962838,135.4942657,https://tabelog.com/osaka/A2701/A270101/27050029/dtlmenu/drink/
アサヒ スーパードライ生,700,オイスターバー、ワインバー、ステーキ,ザ・パーティー,大阪府 大阪市北区 堂島 1-2-15 浜村サンプラザビル  1Ｆ,050-5589-8362,34.696485,135.4987716,https://tabelog.com/osaka/A2701/A270101/27059776/dtlmenu/drink/
アサヒ ドライブラック(小瓶),660,広東料理,神戸元町別館 牡丹園 大阪梅田エスト店,大阪府 大阪市北区 角田町 3-25 エストエッジビル　４Ｆ,050-5890-6689,34.7046134,135.5003413,https://tabelog.com/osaka/A2701/A270101/27010355/dtlmenu/drink/
アサヒ ドライプレミアム(中瓶),800,懐石・会席料理、割烹・小料理、魚介料理・海鮮料理,御料理 堀川,大阪府 大阪市北区 天満 4-8-17  グレイスイン天満2番館 1F,06-7173-9388,34.6937135,135.5142022,https://tabelog.com/osaka/A2701/A270103/27082677/dtlmenu/drink/
アサヒ 大瓶,880,中華料理、四川料理、担々麺,中菜バル 堂島,大阪府 大阪市北区 曽根崎新地 2-4-7 酒井ビル 1F,050-5457-6218,34.6972386,135.4937642,https://tabelog.com/osaka/A2701/A270101/27119385/dtlmenu/drink/
アサヒ 熟撰 305ml瓶,990,居酒屋、魚介料理・海鮮料理、日本酒バー,炭と地酒とたしなみワイン Kai本店 醸す,大阪府 大阪市北区 堂島浜 1-1-15 堂浜第2ビル B1F,050-5570-8252,34.6957247,135.4999131,https://tabelog.com/osaka/A2701/A270101/27042896/dtlmenu/drink/
アサヒ 熟撰 生,700,割烹・小料理、魚介料理・海鮮料理、日本酒バー,御料理 うえの,大阪府 大阪市北区 曽根崎新地 1-9-12 3F,050-5456-8960,34.6982594,135.4988228,https://tabelog.com/osaka/A2701/A270101/27095129/dtlmenu/drink/
アサヒ 黒 ハーフ&ハーフ,800,居酒屋、ふぐ、すっぽん,馳走や純平,大阪府 大阪市北区 曽根崎新地 1-5-25 ジェイ・プライド梅田永楽ビル 5F,06-6341-5228,34.6978875,135.497667,https://tabelog.com/osaka/A2701/A270101/27014760/dtlmenu/drink/
アサヒ/キリン/サッポロ,1500,ラウンジ、カフェ、バー,ザ ロビーラウンジ,大阪府 大阪市北区 梅田 2-5-25 ザ・リッツ・カールトン大阪  1F,06-6343-7020,34.69834,135.4925207,https://tabelog.com/osaka/A2701/A270101/27000698/dtlmenu/drink/
アサヒスタウト(瓶),950,西洋各国料理（その他）、バー,ビルボードライブ大阪,大阪府 大阪市北区 梅田 2-2-22 ハービスPLAZA ENT  B2F,06-6342-7722,34.6997829,135.4945698,https://tabelog.com/osaka/A2701/A270101/27012838/dtlmenu/drink/
アサヒスーパードライ,660,うなぎ、和食（その他）、丼もの（その他）,鰻萬 阪急うめだ本店,大阪府 大阪市北区 角田町 8-7 阪急うめだ本店  12F,050-5590-3637,34.7028186,135.4985323,https://tabelog.com/osaka/A2701/A270101/27068788/dtlmenu/drink/
アサヒスーパードライ,1100,ステーキ、ダイニングバー、ワインバー,ウルフギャング・ステーキハウス 大阪店,大阪府 大阪市北区 梅田 3-1-3 ルクア イーレ 10Ｆ,050-5571-6855,34.7028866,135.4953236,https://tabelog.com/osaka/A2701/A270101/27084039/dtlmenu/drink/
アサヒスーパードライ,780,割烹・小料理、焼鳥、居酒屋,鶏割烹 ならや,大阪府 大阪市北区 曽根崎新地 1-7-8 新日本新地ビル本館 3F,050-5596-4987,34.6970511,135.5001156,https://tabelog.com/osaka/A2701/A270101/27107513/dtlmenu/drink/
アサヒスーパードライ,470,居酒屋、焼鳥、串焼き,どんたく,大阪府 大阪市北区 梅田 1-2-2 大阪駅前第2ビル  B2F,050-5872-8806,34.6989342,135.4979539,https://tabelog.com/osaka/A2701/A270101/27000696/dtlmenu/drink/
アサヒスーパードライ,750,イタリアン、ステーキ、ワインバー,ゼックスウエスト サルヴァトーレ クオモブロス,大阪府 大阪市北区 梅田 2-2-22 ハービスPLAZA ENT  7F,050-5868-1918,34.6997829,135.4945698,https://tabelog.com/osaka/A2701/A270101/27003244/dtlmenu/drink/
アサヒスーパードライ,700,フレンチ、バー、モダンフレンチ,Maison B,大阪府 大阪市北区 曽根崎新地 1-1-43 竹葉亭ビル 1F・2F,050-5456-5693,34.6755843,135.4976825,https://tabelog.com/osaka/A2701/A270101/27114365/dtlmenu/drink/
アサヒスーパードライ,770,フレンチ、パスタ、洋食,北新地 黒猫,大阪府 大阪市北区 曽根崎新地 1-9-11  エスパス北新地10 B1F　,050-5595-1720,34.6982594,135.4988228,https://tabelog.com/osaka/A2701/A270101/27102792/dtlmenu/drink/
アサヒスーパードライ,680,かに、シンガポール料理、シーフード,シンガポール・シーフード・リパブリック 大丸梅田,大阪府 大阪市北区 梅田 3-1-1 大丸梅田店  14F,050-5571-1403,34.701789,135.4965763,https://tabelog.com/osaka/A2701/A270101/27055314/dtlmenu/drink/
アサヒスーパードライ,850,ステーキ、アメリカ料理、バイキング,ロウリーズ・ザ・プライムリブ 大阪,大阪府 大阪市北区 梅田 2-2-22 ハービスPLAZA ENT  5F,050-5593-4617,34.6997829,135.4945698,https://tabelog.com/osaka/A2701/A270101/27018310/dtlmenu/drink/
アサヒスーパードライ,429,立ち飲み居酒屋・バー,立ち飲み じんべえ,大阪府 大阪市北区 曾根崎2-14-7 グランデ曽根崎ビル 1F,050-5589-6682,34.7009651,135.501073,https://tabelog.com/osaka/A2701/A270101/27087097/dtlmenu/drink/
アサヒスーパードライ,748,イタリアン、オイスターバー、シーフード,梅田 ワーフ,大阪府 大阪市北区 茶屋町 1-45 OIT梅田タワー 1F ,06-6292-8889,34.7054608,135.5002125,https://tabelog.com/osaka/A2701/A270101/27095261/dtlmenu/drink/
アサヒスーパードライ,600,懐石・会席料理、割烹・小料理、京料理,おもてなし茶屋　咲扇,大阪府 大阪市北区 曽根崎新地 1-1-9 谷安キャバリエーレビル,06-6348-5557,34.6978481,135.498431,https://tabelog.com/osaka/A2701/A270102/27042295/dtlmenu/drink/
アサヒスーパードライ,650,創作料理、中華料理、ワインバー,RAKUSUI,大阪府 大阪市北区 曽根崎新地 1-9-8 ゴアビル　１Ｆ,050-5869-5380,34.6982594,135.4988228,https://tabelog.com/osaka/A2701/A270101/27007724/dtlmenu/drink/
アサヒスーパードライ (中瓶),880,広東料理,神戸元町別館 牡丹園 大阪梅田エスト店,大阪府 大阪市北区 角田町 3-25 エストエッジビル　４Ｆ,050-5890-6689,34.7046134,135.5003413,https://tabelog.com/osaka/A2701/A270101/27010355/dtlmenu/drink/
アサヒスーパードライ 330ml,850,中華料理、広東料理、魚介料理・海鮮料理,中国料理 燦宮,大阪府 大阪市北区 大淀中 1-1-88 梅田スカイビル 39F,050-5597-5453,34.7052872,135.4896527,https://tabelog.com/osaka/A2701/A270101/27000691/dtlmenu/drink/
アサヒスーパードライ キリンラガー  サッポロ黒ラベル,990,懐石・会席料理、割烹・小料理、天ぷら,北瑞苑,大阪府 大阪市北区 曽根崎新地 2-3-21 ａｘビル　３Ｆ,050-5868-3897,34.6979945,135.4945578,https://tabelog.com/osaka/A2701/A270101/27000742/dtlmenu/drink/
アサヒスーパードライ ジョッキ,605,居酒屋、焼鳥、郷土料理（その他）,宮崎料理 万作 グランフロント大阪店,大阪府 大阪市北区 大深町 4-20 グランフロント大阪  南館7Ｆ,050-5868-3016,34.7053491,135.4945979,https://tabelog.com/osaka/A2701/A270101/27072190/dtlmenu/drink/
アサヒスーパードライ ドライブラック(生),970,西洋各国料理（その他）、バー,ビルボードライブ大阪,大阪府 大阪市北区 梅田 2-2-22 ハービスPLAZA ENT  B2F,06-6342-7722,34.6997829,135.4945698,https://tabelog.com/osaka/A2701/A270101/27012838/dtlmenu/drink/
アサヒスーパードライ 中瓶,605,居酒屋、焼鳥、郷土料理（その他）,宮崎料理 万作 グランフロント大阪店,大阪府 大阪市北区 大深町 4-20 グランフロント大阪  南館7Ｆ,050-5868-3016,34.7053491,135.4945979,https://tabelog.com/osaka/A2701/A270101/27072190/dtlmenu/drink/
アサヒスーパードライ 中瓶,1050,中華料理、広東料理、魚介料理・海鮮料理,中国料理 燦宮,大阪府 大阪市北区 大淀中 1-1-88 梅田スカイビル 39F,050-5597-5453,34.7052872,135.4896527,https://tabelog.com/osaka/A2701/A270101/27000691/dtlmenu/drink/
アサヒスーパードライ 小瓶,770,焼肉、韓国料理、冷麺,焼肉冷麺 ユッチャン 北新地店,大阪府 大阪市北区 曽根崎新地 1-3-9 GOTS北新地ビル 1F,050-5872-2771,34.697513,135.4962862,https://tabelog.com/osaka/A2701/A270101/27120854/dtlmenu/drink/
アサヒスーパードライ 小瓶,800,中華料理、広東料理、魚介料理・海鮮料理,中国料理 燦宮,大阪府 大阪市北区 大淀中 1-1-88 梅田スカイビル 39F,050-5597-5453,34.7052872,135.4896527,https://tabelog.com/osaka/A2701/A270101/27000691/dtlmenu/drink/
アサヒスーパードライ 生ビール,600,中華料理、広東料理、上海料理,フーロン,大阪府 大阪市北区 曽根崎新地 1-2-4 谷安セストビル　2F　,050-5890-0491,34.6970035,135.4983297,https://tabelog.com/osaka/A2701/A270101/27043596/dtlmenu/drink/
アサヒスーパードライ 生ビール,550,割烹・小料理、天ぷら、おでん,ご馳走 ね音,大阪府 大阪市北区 天神橋 5-3-22 安田ビル 2F,050-5597-8331,34.7077688,135.5121856,https://tabelog.com/osaka/A2701/A270103/27096416/dtlmenu/drink/
アサヒスーパードライ(グラスビール),450,天ぷら、居酒屋、和食（その他）,天ぷら 市,大阪府 大阪市北区 天神橋 3-7-26,050-5457-1940,34.7010883,135.5113446,https://tabelog.com/osaka/A2701/A270103/27096666/dtlmenu/drink/
アサヒスーパードライ(メガジョッキ),890,ラーメン、居酒屋、バル・バール,肉太郎 梅田第3ビル店,大阪府 大阪市北区 梅田 1-1-3 大阪駅前第3ビル  B1F,050-5589-2617,34.6988257,135.4992804,https://tabelog.com/osaka/A2701/A270101/27077885/dtlmenu/drink/
アサヒスーパードライ(中),430,ビストロ、イタリアン、ハンバーグ,ノワ・ド・ココ,大阪府 大阪市北区 本庄東 2-5-32,050-5457-5704,34.7125427,135.5087052,https://tabelog.com/osaka/A2701/A270103/27003514/dtlmenu/drink/
アサヒスーパードライ(中ジョッキ),600,天ぷら、居酒屋、和食（その他）,天ぷら 市,大阪府 大阪市北区 天神橋 3-7-26,050-5457-1940,34.7010883,135.5113446,https://tabelog.com/osaka/A2701/A270103/27096666/dtlmenu/drink/
アサヒスーパードライ(中ビン),480,ビストロ、イタリアン、ハンバーグ,ノワ・ド・ココ,大阪府 大阪市北区 本庄東 2-5-32,050-5457-5704,34.7125427,135.5087052,https://tabelog.com/osaka/A2701/A270103/27003514/dtlmenu/drink/
アサヒスーパードライ(中瓶),900,割烹・小料理、懐石・会席料理、和食（その他）,浪速割烹 昇,大阪府 大阪市北区 大淀南 1-3-12,050-5589-8941,34.7038392,135.4903127,https://tabelog.com/osaka/A2701/A270101/27095612/dtlmenu/drink/
アサヒスーパードライ(中瓶),627,魚介料理・海鮮料理、ふぐ、居酒屋,割鮮 吉在門 東通り店,大阪府 大阪市北区 小松原町 1-16 モコビル　Ｂ１Ｆ,050-5456-6662,34.7025203,135.5010177,https://tabelog.com/osaka/A2701/A270101/27001918/dtlmenu/drink/
アサヒスーパードライ(中瓶),650,天ぷら、居酒屋、和食（その他）,天ぷら 市,大阪府 大阪市北区 天神橋 3-7-26,050-5457-1940,34.7010883,135.5113446,https://tabelog.com/osaka/A2701/A270103/27096666/dtlmenu/drink/
アサヒスーパードライ(小瓶),990,焼肉、鉄板焼き、ステーキ,北新地 名門,大阪府 大阪市北区 曾根崎新地1-4-25 新地MDビル 2F・3F,050-5597-5550,34.6978827,135.4965992,https://tabelog.com/osaka/A2701/A270101/27111765/dtlmenu/drink/
アサヒスーパードライ(小瓶),950,鉄板焼き、ステーキ、フレンチ,鉄板焼　季流,大阪府 大阪市北区 梅田 3-1-1 ホテルグランヴィア大阪  19F,050-5590-9124,34.701726,135.4963754,https://tabelog.com/osaka/A2701/A270101/27008704/dtlmenu/drink/
アサヒスーパードライ(樽生:中),605,魚介料理・海鮮料理、ふぐ、居酒屋,割鮮 吉在門 東通り店,大阪府 大阪市北区 小松原町 1-16 モコビル　Ｂ１Ｆ,050-5456-6662,34.7025203,135.5010177,https://tabelog.com/osaka/A2701/A270101/27001918/dtlmenu/drink/
アサヒスーパードライ(樽生:小),462,魚介料理・海鮮料理、ふぐ、居酒屋,割鮮 吉在門 東通り店,大阪府 大阪市北区 小松原町 1-16 モコビル　Ｂ１Ｆ,050-5456-6662,34.7025203,135.5010177,https://tabelog.com/osaka/A2701/A270101/27001918/dtlmenu/drink/
アサヒスーパードライ(瓶),418,焼肉、ステーキ、バル・バール,街の肉バルBuff 南森町店,大阪府 大阪市北区 天神橋 3-2-19 ドエル南森町 1F,06-6881-5529,34.6998189,135.5111035,https://tabelog.com/osaka/A2701/A270103/27068969/dtlmenu/drink/
アサヒスーパードライ(生),970,西洋各国料理（その他）、バー,ビルボードライブ大阪,大阪府 大阪市北区 梅田 2-2-22 ハービスPLAZA ENT  B2F,06-6342-7722,34.6997829,135.4945698,https://tabelog.com/osaka/A2701/A270101/27012838/dtlmenu/drink/
アサヒスーパードライ(生),680,イタリアン、パスタ、カフェ,TRATTORIA AL POMPIERE,大阪府 大阪市北区 角田町 8-7 阪急うめだ本店  13F,050-3201-3869,34.7028186,135.4985323,https://tabelog.com/osaka/A2701/A270101/27068655/dtlmenu/drink/
アサヒスーパードライ(生),770,居酒屋、魚介料理・海鮮料理、イタリアン,浪花ろばた 頂鯛 北新地店,大阪府 大阪市北区 曽根崎新地 1-6-21 栄和ビル 1F,050-5570-8280,34.6976865,135.4985139,https://tabelog.com/osaka/A2701/A270101/27072428/dtlmenu/drink/
アサヒスーパードライ(生中),680,中華料理、四川料理、広東料理,老虎菜 阪神梅田店,大阪府 大阪市北区 梅田 1-13-13 阪神百貨店 9F,050-5570-8759,34.7010083,135.4977374,https://tabelog.com/osaka/A2701/A270101/27124951/dtlmenu/drink/
アサヒスーパードライ(生小),570,中華料理、四川料理、広東料理,老虎菜 阪神梅田店,大阪府 大阪市北区 梅田 1-13-13 阪神百貨店 9F,050-5570-8759,34.7010083,135.4977374,https://tabelog.com/osaka/A2701/A270101/27124951/dtlmenu/drink/
アサヒスーパードライ/生中,480,居酒屋、魚介料理・海鮮料理、日本酒バー,うたげどころ うぉっしゅ,大阪府 大阪市北区 曾根崎新地2-3-13 若杉大阪駅前ビル B1F,050-5590-0931,34.697794,135.4938986,https://tabelog.com/osaka/A2701/A270101/27088669/dtlmenu/drink/
アサヒスーパードライ/生小,380,居酒屋、魚介料理・海鮮料理、日本酒バー,うたげどころ うぉっしゅ,大阪府 大阪市北区 曾根崎新地2-3-13 若杉大阪駅前ビル B1F,050-5590-0931,34.697794,135.4938986,https://tabelog.com/osaka/A2701/A270101/27088669/dtlmenu/drink/
アサヒスーパードライ大瓶,759,立ち飲み居酒屋・バー,立ち飲み じんべえ,大阪府 大阪市北区 曾根崎2-14-7 グランデ曽根崎ビル 1F,050-5589-6682,34.7009651,135.501073,https://tabelog.com/osaka/A2701/A270101/27087097/dtlmenu/drink/
アサヒスーパードライ樽生,770,フレンチ、オムライス,カラーズ,大阪府 大阪市北区 曽根崎新地 1-6-7,050-5872-8670,34.6982594,135.4988228,https://tabelog.com/osaka/A2701/A270101/27050227/dtlmenu/drink/
アサヒスーパードライ瓶ビール(334ml),650,ピザ、イタリアン,ラ・バルカッチャ,大阪府 大阪市北区 豊崎 3-5-17 1階,06-6373-8181,34.7111563,135.4994474,https://tabelog.com/osaka/A2701/A270101/27054558/dtlmenu/drink/
アサヒスーパードライ生,450,焼肉、しゃぶしゃぶ、ステーキ,焼肉たまき,大阪府 大阪市北区 黒崎町 3-22,050-5592-1900,34.7073176,135.5077292,https://tabelog.com/osaka/A2701/A270101/27092684/dtlmenu/drink/
アサヒスーパードライ生ビール,500,寿司、魚介料理・海鮮料理,寿司処多もん,大阪府 大阪市北区 天神橋 5-6-2,06-4800-2480,34.706567,135.5117252,https://tabelog.com/osaka/A2701/A270103/27076312/dtlmenu/drink/
アサヒスーパードライ生中,385,居酒屋、魚介料理・海鮮料理、日本酒バー,いしもん 本店,大阪府 大阪市北区 梅田 1-3 大阪駅前第一ビル B2F,050-5456-9736,34.6988863,135.4964525,https://tabelog.com/osaka/A2701/A270101/27071970/dtlmenu/drink/
アサヒスｰパｰドライ(樽生)生ビール (一口生ビール),418,広東料理,神戸元町別館 牡丹園 大阪梅田エスト店,大阪府 大阪市北区 角田町 3-25 エストエッジビル　４Ｆ,050-5890-6689,34.7046134,135.5003413,https://tabelog.com/osaka/A2701/A270101/27010355/dtlmenu/drink/
アサヒスｰパｰドライ(樽生)生ビール (中),880,広東料理,神戸元町別館 牡丹園 大阪梅田エスト店,大阪府 大阪市北区 角田町 3-25 エストエッジビル　４Ｆ,050-5890-6689,34.7046134,135.5003413,https://tabelog.com/osaka/A2701/A270101/27010355/dtlmenu/drink/
アサヒスｰパｰドライ(樽生)生ビール (小),495,広東料理,神戸元町別館 牡丹園 大阪梅田エスト店,大阪府 大阪市北区 角田町 3-25 エストエッジビル　４Ｆ,050-5890-6689,34.7046134,135.5003413,https://tabelog.com/osaka/A2701/A270101/27010355/dtlmenu/drink/
アサヒドライブラック,429,立ち飲み居酒屋・バー,立ち飲み じんべえ,大阪府 大阪市北区 曾根崎2-14-7 グランデ曽根崎ビル 1F,050-5589-6682,34.7009651,135.501073,https://tabelog.com/osaka/A2701/A270101/27087097/dtlmenu/drink/
アサヒビール,638,カフェ、ピザ、イタリアン,チーズと生はちみつ BeNe NU chayamachi,大阪府 大阪市北区 茶屋町 10-12 NU茶屋町  9F,050-5456-4751,34.7069626,135.4990769,https://tabelog.com/osaka/A2701/A270101/27066417/dtlmenu/drink/
アサヒビール瓶,600,タイ料理、タイカレー、野菜料理,タイーヤータイ,大阪府 大阪市北区 曽根崎 1-6-23,06-6232-8733,34.6990444,135.5040409,https://tabelog.com/osaka/A2701/A270101/27074206/dtlmenu/drink/
アサヒプレミアムビール 熟撰(中瓶),660,魚介料理・海鮮料理、ふぐ、居酒屋,割鮮 吉在門 東通り店,大阪府 大阪市北区 小松原町 1-16 モコビル　Ｂ１Ｆ,050-5456-6662,34.7025203,135.5010177,https://tabelog.com/osaka/A2701/A270101/27001918/dtlmenu/drink/
アサヒプレミアム生ビール熟撰(グラス),800,イタリアン、フレンチ、野菜料理,ノガラッツァ,大阪府 大阪市北区 中之島 3-3-23 中之島ダイビル  2F,06-6225-2950,34.6931156,135.4935985,https://tabelog.com/osaka/A2701/A270102/27014598/dtlmenu/drink/
アサヒ・スーパードライ (中瓶),770,炭火焼き、魚介料理・海鮮料理、海鮮丼,はまじま,大阪府 大阪市北区 堂島浜 1-1-8,050-5890-1236,34.6952097,135.500063,https://tabelog.com/osaka/A2701/A270102/27004668/dtlmenu/drink/
アサヒ中瓶ビール,610,たこ焼き、お好み焼き、居酒屋,蛸之徹 角田店,大阪府 大阪市北区 角田町 1-10 くろふねビル　１Ｆ,050-5869-8099,34.7043079,135.5011282,https://tabelog.com/osaka/A2701/A270101/27000283/dtlmenu/drink/
アサヒ中瓶ビール,610,たこ焼き、お好み焼き、居酒屋,蛸之徹 マルビル店,大阪府 大阪市北区 梅田 1-9-20 大阪マルビル  B2F,050-5872-3847,34.6997768,135.4969056,https://tabelog.com/osaka/A2701/A270101/27003686/dtlmenu/drink/
アサヒ熟撰 小瓶,600,イタリアン、フレンチ、バル・バール,キュイジーヌ・MA,大阪府 大阪市北区 堂島 1-3-8 堂島リンデンビル  1Ｆ,06-6345-2206,34.6964857,135.4979799,https://tabelog.com/osaka/A2701/A270101/27011707/dtlmenu/drink/
アサヒ熟撰(生)プレミアムビール,1200,鉄板焼き、ステーキ、フレンチ,鉄板焼　季流,大阪府 大阪市北区 梅田 3-1-1 ホテルグランヴィア大阪  19F,050-5590-9124,34.701726,135.4963754,https://tabelog.com/osaka/A2701/A270101/27008704/dtlmenu/drink/
アサヒ熟撰(生ビール),1100,焼肉、鉄板焼き、ステーキ,北新地 名門,大阪府 大阪市北区 曾根崎新地1-4-25 新地MDビル 2F・3F,050-5597-5550,34.6978827,135.4965992,https://tabelog.com/osaka/A2701/A270101/27111765/dtlmenu/drink/
アサヒ生,2100,バー、ラウンジ、スイーツ（その他）,40スカイバー＆ラウンジ,大阪府 大阪市北区 中之島 3-2-4 中之島フェスティバルタワー・ウェスト コンラッド大阪 40F,06-6222-0111,34.6935357,135.4957224,https://tabelog.com/osaka/A2701/A270102/27097670/dtlmenu/drink/
アサヒ生ビール,550,そば、居酒屋、日本酒バー,石挽き十割蕎麦 玄盛 北新地本店,大阪府 大阪市北区 曽根崎新地 1-10-6 北新地シリウスビル 1～4F,050-5595-6682,34.6982594,135.4988228,https://tabelog.com/osaka/A2701/A270101/27104902/dtlmenu/drink/
アサヒ生ビール,550,居酒屋、あなご、日本酒バー,あなごや 炭火 ざく,大阪府 大阪市北区 西天満 4-15-1,050-5594-9558,34.6975637,135.5015701,https://tabelog.com/osaka/A2701/A270102/27089844/dtlmenu/drink/
アサヒ生ビール マルエフ,770,フレンチ、モダンフレンチ、イノベーティブ・フュージョン,しまなみふれんち Murakami,大阪府 大阪市北区 天神橋 1-13-15 大阪グリーン会館 102,050-5456-1294,34.6945848,135.5122193,https://tabelog.com/osaka/A2701/A270103/27100646/dtlmenu/drink/
アサヒ生ビール マルエフ黒生 【中】￥549(税込),499,洋食、ビストロ、居酒屋,グリル異人館 大阪駅前第3ビル店,大阪府 大阪市北区 梅田 1-1-3 大阪駅前第3ビル  B1F 100,06-6455-5033,34.6988257,135.4992804,https://tabelog.com/osaka/A2701/A270101/27085473/dtlmenu/drink/
アサヒ生ビール(中),540,たこ焼き、お好み焼き、居酒屋,蛸之徹 マルビル店,大阪府 大阪市北区 梅田 1-9-20 大阪マルビル  B2F,050-5872-3847,34.6997768,135.4969056,https://tabelog.com/osaka/A2701/A270101/27003686/dtlmenu/drink/
アサヒ生ビール(中),540,たこ焼き、お好み焼き、居酒屋,蛸之徹 角田店,大阪府 大阪市北区 角田町 1-10 くろふねビル　１Ｆ,050-5869-8099,34.7043079,135.5011282,https://tabelog.com/osaka/A2701/A270101/27000283/dtlmenu/drink/
アサヒ生ビール(大),720,たこ焼き、お好み焼き、居酒屋,蛸之徹 角田店,大阪府 大阪市北区 角田町 1-10 くろふねビル　１Ｆ,050-5869-8099,34.7043079,135.5011282,https://tabelog.com/osaka/A2701/A270101/27000283/dtlmenu/drink/
アサヒ生ビール(大),720,たこ焼き、お好み焼き、居酒屋,蛸之徹 マルビル店,大阪府 大阪市北区 梅田 1-9-20 大阪マルビル  B2F,050-5872-3847,34.6997768,135.4969056,https://tabelog.com/osaka/A2701/A270101/27003686/dtlmenu/drink/
アサヒ生ビール(小),420,たこ焼き、お好み焼き、居酒屋,蛸之徹 マルビル店,大阪府 大阪市北区 梅田 1-9-20 大阪マルビル  B2F,050-5872-3847,34.6997768,135.4969056,https://tabelog.com/osaka/A2701/A270101/27003686/dtlmenu/drink/
アサヒ生ビール(小),420,たこ焼き、お好み焼き、居酒屋,蛸之徹 角田店,大阪府 大阪市北区 角田町 1-10 くろふねビル　１Ｆ,050-5869-8099,34.7043079,135.5011282,https://tabelog.com/osaka/A2701/A270101/27000283/dtlmenu/drink/
アサヒ生ビールマルエフ 【中】￥549(税込),499,洋食、ビストロ、居酒屋,グリル異人館 大阪駅前第3ビル店,大阪府 大阪市北区 梅田 1-1-3 大阪駅前第3ビル  B1F 100,06-6455-5033,34.6988257,135.4992804,https://tabelog.com/osaka/A2701/A270101/27085473/dtlmenu/drink/
アサヒ青生ビール,520,豚料理、焼きとん、居酒屋,焼とんya たゆたゆ 天満,大阪府 大阪市北区 天神橋 5-1-15 上田ビル,050-5590-6537,34.7067172,135.5120613,https://tabelog.com/osaka/A2701/A270103/27090831/dtlmenu/drink/
アサヒ青生ビール,605,焼きとん、焼酎バー、豚料理,串焼き 焼とんyaたゆたゆ お初天神店,大阪府 大阪市北区 曽根崎 2-10-7 1F,050-5571-6865,34.7009597,135.5007968,https://tabelog.com/osaka/A2701/A270101/27084212/dtlmenu/drink/
アサヒ黒瓶ビール小,450,たこ焼き、お好み焼き、居酒屋,蛸之徹 マルビル店,大阪府 大阪市北区 梅田 1-9-20 大阪マルビル  B2F,050-5872-3847,34.6997768,135.4969056,https://tabelog.com/osaka/A2701/A270101/27003686/dtlmenu/drink/
アサヒ黒瓶ビール小,450,たこ焼き、お好み焼き、居酒屋,蛸之徹 角田店,大阪府 大阪市北区 角田町 1-10 くろふねビル　１Ｆ,050-5869-8099,34.7043079,135.5011282,https://tabelog.com/osaka/A2701/A270101/27000283/dtlmenu/drink/
アサヒ黒生,600,懐石・会席料理、割烹・小料理、京料理,おもてなし茶屋　咲扇,大阪府 大阪市北区 曽根崎新地 1-1-9 谷安キャバリエーレビル,06-6348-5557,34.6978481,135.498431,https://tabelog.com/osaka/A2701/A270102/27042295/dtlmenu/drink/
アサヒ黒生ビール,520,豚料理、焼きとん、居酒屋,焼とんya たゆたゆ 天満,大阪府 大阪市北区 天神橋 5-1-15 上田ビル,050-5590-6537,34.7067172,135.5120613,https://tabelog.com/osaka/A2701/A270103/27090831/dtlmenu/drink/
エビス,650,そば、割烹・小料理、創作料理,大幸庵 玄,大阪府 大阪市北区 堂島 1-2-2 堂栄ビル　１Ｆ,06-6344-5655,34.6962122,135.4995908,https://tabelog.com/osaka/A2701/A270101/27018661/dtlmenu/drink/
エビス,1100,ステーキ、ダイニングバー、ワインバー,ウルフギャング・ステーキハウス 大阪店,大阪府 大阪市北区 梅田 3-1-3 ルクア イーレ 10Ｆ,050-5571-6855,34.7028866,135.4953236,https://tabelog.com/osaka/A2701/A270101/27084039/dtlmenu/drink/
エビス,550,懐石・会席料理、魚介料理・海鮮料理、あなご,あなごと日本酒 なかむら,大阪府 大阪市北区 天神橋 3-3-14,050-5593-2951,34.7005326,135.511293,https://tabelog.com/osaka/A2701/A270103/27095642/dtlmenu/drink/
エビス,880,割烹・小料理、焼鳥、居酒屋,鶏割烹 ならや,大阪府 大阪市北区 曽根崎新地 1-7-8 新日本新地ビル本館 3F,050-5596-4987,34.6970511,135.5001156,https://tabelog.com/osaka/A2701/A270101/27107513/dtlmenu/drink/
エビス エビスビール(瓶),1320,懐石・会席料理、割烹・小料理、ふぐ,雅しゅとうとう,大阪府 大阪市北区 堂島 1-5-2 フェザービル 1F,06-6348-0141,34.696056,135.4968569,https://tabelog.com/osaka/A2701/A270101/27012489/dtlmenu/drink/
エビス 中瓶,858,焼肉、しゃぶしゃぶ、もつ鍋,黒毛和牛肉匠 いちえ 本邸,大阪府 大阪市北区 曽根崎新地 1-9-9 谷安ロワビル 1F,050-5868-8018,34.6977557,135.4989097,https://tabelog.com/osaka/A2701/A270101/27044096/dtlmenu/drink/
エビス 小瓶,770,焼肉、韓国料理、冷麺,焼肉冷麺 ユッチャン 北新地店,大阪府 大阪市北区 曽根崎新地 1-3-9 GOTS北新地ビル 1F,050-5872-2771,34.697513,135.4962862,https://tabelog.com/osaka/A2701/A270101/27120854/dtlmenu/drink/
エビス(生ビール),650,焼鳥、居酒屋、日本酒バー,カッシーワ お初天神店,大阪府 大阪市北区 曽根崎 2-10-20 河合ビル 1Ｆ,050-5571-5173,34.7007326,135.5009073,https://tabelog.com/osaka/A2701/A270101/27083509/dtlmenu/drink/
エビスビール,480,居酒屋、焼鳥、串焼き,どんたく,大阪府 大阪市北区 梅田 1-2-2 大阪駅前第2ビル  B2F,050-5872-8806,34.6989342,135.4979539,https://tabelog.com/osaka/A2701/A270101/27000696/dtlmenu/drink/
エビスビール,600,ビストロ、フレンチ、ワインバー,ビストロケ ヤマネ,大阪府 大阪市北区 堂島 1-3-16 堂島メリーセンタービル 1F,080-9167-0326,34.6966074,135.4972251,https://tabelog.com/osaka/A2701/A270101/27095344/dtlmenu/drink/
エビス樽生(中),560,そば、郷土料理（その他）、居酒屋,瓦そば すずめ,大阪府 大阪市北区 太融寺町 1-9,050-5457-4037,34.7015459,135.505225,https://tabelog.com/osaka/A2701/A270101/27071287/dtlmenu/drink/
エビス琥珀,770,イタリアン、ワインバー、ビストロ,nitro,大阪府 大阪市北区 曽根崎 1-6-10,050-5589-1088,34.6993912,135.5036545,https://tabelog.com/osaka/A2701/A270101/27107373/dtlmenu/drink/
エビス瓶ビール 中,880,割烹・小料理、居酒屋,はな柳,大阪府 大阪市北区 堂島 1-3-4 谷安ビル  1F,050-5593-1470,34.6963789,135.4982009,https://tabelog.com/osaka/A2701/A270101/27082454/dtlmenu/drink/
エビス瓶ビール(中),510,そば、郷土料理（その他）、居酒屋,瓦そば すずめ,大阪府 大阪市北区 太融寺町 1-9,050-5457-4037,34.7015459,135.505225,https://tabelog.com/osaka/A2701/A270101/27071287/dtlmenu/drink/
エビス生ビール,770,魚介料理・海鮮料理、割烹・小料理、懐石・会席料理,ろっこん,大阪府 大阪市北区 曽根崎新地 1-1-15,050-5869-7586,34.6939689,135.5059383,https://tabelog.com/osaka/A2701/A270101/27052272/dtlmenu/drink/
キリン クラシックラガー,650,串揚げ・串かつ、居酒屋、和食（その他）,知留久 曽根崎本店,大阪府 大阪市北区 曽根崎 2-9-9,050-5596-7634,34.7002522,135.5009268,https://tabelog.com/osaka/A2701/A270101/27000479/dtlmenu/drink/
キリン クラシックラガー,715,とんかつ、洋食、カレー（その他）,epais,大阪府 大阪市北区 曽根崎新地 1-9-3 ニュー華ビル 3F,050-5890-4534,34.6982594,135.4988228,https://tabelog.com/osaka/A2701/A270101/27072441/dtlmenu/drink/
キリン クラシックラガー,968,懐石・会席料理、魚介料理・海鮮料理、鍋（その他）,西梅田 禅園,大阪府 大阪市北区 梅田 2-5-25 ハービスプラザ  B2F,050-5590-0884,34.6984253,135.4926758,https://tabelog.com/osaka/A2701/A270101/27002685/dtlmenu/drink/
キリン クラシックラガー びんビール(中瓶),550,焼肉,万両 東天満店,大阪府 大阪市北区 天満 2-7-25 塩見ビル　１Ｆ,06-6882-0221,34.6938193,135.5173239,https://tabelog.com/osaka/A2701/A270103/27003763/dtlmenu/drink/
キリン クラシックラガー 中瓶,880,焼肉、しゃぶしゃぶ、もつ鍋,黒毛和牛肉匠 いちえ 本邸,大阪府 大阪市北区 曽根崎新地 1-9-9 谷安ロワビル 1F,050-5868-8018,34.6977557,135.4989097,https://tabelog.com/osaka/A2701/A270101/27044096/dtlmenu/drink/
キリン クラシックラガー 小,880,イタリアン、創作料理、ダイニングバー,人家,大阪府 大阪市北区 曽根崎新地 1-3-3 好陽ビル　Ｂ１Ｆ,050-5590-9679,34.6973226,135.4969674,https://tabelog.com/osaka/A2701/A270101/27000741/dtlmenu/drink/
キリン ハートランド,530,飲茶・点心、中華料理、小籠包,龍福小籠堂 NU茶屋町店,大阪府 大阪市北区 茶屋町 10-12 NU茶屋町  8F,050-5595-9734,34.7069626,135.4990769,https://tabelog.com/osaka/A2701/A270101/27045802/dtlmenu/drink/
キリン ハートランド(中瓶),900,割烹・小料理、懐石・会席料理、和食（その他）,浪速割烹 昇,大阪府 大阪市北区 大淀南 1-3-12,050-5589-8941,34.7038392,135.4903127,https://tabelog.com/osaka/A2701/A270101/27095612/dtlmenu/drink/
キリン ハートランド(小瓶),660,フレンチ、モダンフレンチ、イノベーティブ・フュージョン,しまなみふれんち Murakami,大阪府 大阪市北区 天神橋 1-13-15 大阪グリーン会館 102,050-5456-1294,34.6945848,135.5122193,https://tabelog.com/osaka/A2701/A270103/27100646/dtlmenu/drink/
キリン ハートランド中瓶,650,フレンチ、西洋各国料理（その他）、モダンフレンチ,西洋料理　いまとむかし,大阪府 大阪市北区 西天満 3-8-7 中之島ウィングマンション　1Ｆ,06-6364-1136,34.6952723,135.5073149,https://tabelog.com/osaka/A2701/A270102/27003673/dtlmenu/drink/
キリン ハードシードル樽生,600,野菜料理、無国籍料理、自然食,mus,大阪府 大阪市北区 豊崎 3-10-2 I＆F梅田 1F,06-6377-6363,34.7094583,135.4988084,https://tabelog.com/osaka/A2701/A270101/27014433/dtlmenu/drink/
キリン ブラウマイスター生ビール(中),640,焼鳥、水炊き、親子丼,飛鳥,大阪府 大阪市北区 西天満 3-8-18 西天満ビューハイツ　１Ｆ,06-6361-0137,34.6952314,135.5078305,https://tabelog.com/osaka/A2701/A270103/27005051/dtlmenu/drink/
キリン ラガービール(瓶),1210,懐石・会席料理、割烹・小料理、ふぐ,雅しゅとうとう,大阪府 大阪市北区 堂島 1-5-2 フェザービル 1F,06-6348-0141,34.696056,135.4968569,https://tabelog.com/osaka/A2701/A270101/27012489/dtlmenu/drink/
キリン 一番搾り,480,ビストロ、イタリアン、フレンチ,ポポンペット,大阪府 大阪市北区 曾根崎2-14-15,050-5571-3381,34.7011155,135.5004746,https://tabelog.com/osaka/A2701/A270101/27061884/dtlmenu/drink/
キリン 一番搾り 中瓶,730,焼肉、ステーキ、懐石・会席料理,北新地 すがはら,大阪府 大阪市北区 堂島 1-4-2 ビールディング北新地　２Ｆ,050-5868-7952,34.696101,135.4982009,https://tabelog.com/osaka/A2701/A270101/27000219/dtlmenu/drink/
キリン 一番絞り500ml 中瓶,735,韓国料理、韓国鍋、居酒屋,プロカンジャンケジャン 大阪店,大阪府 大阪市北区 曽根崎新地 1-5-24,050-5571-2678,34.6990236,135.5081067,https://tabelog.com/osaka/A2701/A270101/27065878/dtlmenu/drink/
キリン 陸,550,焼鳥、鳥料理、居酒屋,鶏家 たちばな,大阪府 大阪市北区 天神橋 3-11-5,050-5868-5966,34.7027819,135.512333,https://tabelog.com/osaka/A2701/A270103/27011116/dtlmenu/drink/
キリンクラシックラガー ・一番搾り(中瓶),880,広東料理,神戸元町別館 牡丹園 大阪梅田エスト店,大阪府 大阪市北区 角田町 3-25 エストエッジビル　４Ｆ,050-5890-6689,34.7046134,135.5003413,https://tabelog.com/osaka/A2701/A270101/27010355/dtlmenu/drink/
キリンクラッシックラガー,1100,ステーキ、ダイニングバー、ワインバー,ウルフギャング・ステーキハウス 大阪店,大阪府 大阪市北区 梅田 3-1-3 ルクア イーレ 10Ｆ,050-5571-6855,34.7028866,135.4953236,https://tabelog.com/osaka/A2701/A270101/27084039/dtlmenu/drink/
キリンハートランド 生,490,バル・バール、野菜料理、自然食,おやさいバル TIERRA,大阪府 大阪市北区 中津 1-5-2,06-6372-0323,34.7099563,135.4957363,https://tabelog.com/osaka/A2701/A270101/27054803/dtlmenu/drink/
キリンハートランド<ドラフト>,780,ダイニングバー、イタリアン、パスタ,シャンデリア テーブル,大阪府 大阪市北区 角田町 8-7 阪急うめだ本店  13F,050-3504-0300,34.7028186,135.4985323,https://tabelog.com/osaka/A2701/A270101/27068362/dtlmenu/drink/
キリンハートランドビール,550,定食・食堂、自然食、カフェ,玄三庵 西梅田店,大阪府 大阪市北区 梅田 1-3-1 大阪駅前第1ビル  1F,06-4795-2215,34.6988134,135.4964973,https://tabelog.com/osaka/A2701/A270101/27050674/dtlmenu/drink/
キリンハートランド生ビール,850,ステーキ、アメリカ料理、バイキング,ロウリーズ・ザ・プライムリブ 大阪,大阪府 大阪市北区 梅田 2-2-22 ハービスPLAZA ENT  5F,050-5593-4617,34.6997829,135.4945698,https://tabelog.com/osaka/A2701/A270101/27018310/dtlmenu/drink/
キリンハードシードル,550,ビアバー、ダイニングバー、洋食・欧風料理（その他）,ビアブルグ 梅田,大阪府 大阪市北区 芝田 1-8-1 D.D.HOUSE  1F,06-6375-2461,34.7070549,135.4973708,https://tabelog.com/osaka/A2701/A270101/27053633/dtlmenu/drink/
キリンハードシードル(リンゴのビール),730,アジア・エスニック料理（その他）、ステーキ、カフェ,バリラックス ザ ガーデン 梅田,大阪府 大阪市北区 梅田 1-9-20 大阪マルビル  3F,050-5589-7551,34.6998287,135.4970207,https://tabelog.com/osaka/A2701/A270101/27002144/dtlmenu/drink/
キリンラガー,600,懐石・会席料理、割烹・小料理、京料理,おもてなし茶屋　咲扇,大阪府 大阪市北区 曽根崎新地 1-1-9 谷安キャバリエーレビル,06-6348-5557,34.6978481,135.498431,https://tabelog.com/osaka/A2701/A270102/27042295/dtlmenu/drink/
キリンラガー 中瓶,490,居酒屋、日本酒バー、魚介料理・海鮮料理,百足家,大阪府 大阪市北区 天神橋 5-4-9 クロバーハイツ 1F,06-6232-8253,34.7085102,135.5119094,https://tabelog.com/osaka/A2701/A270103/27093520/dtlmenu/drink/
キリンラガー(中瓶),1320,串揚げ・串かつ、割烹・小料理、とんかつ,北新地 串揚げ かな山,大阪府 大阪市北区 曾根崎新地1-4-25 B1F,050-5597-5519,34.6978827,135.4965992,https://tabelog.com/osaka/A2701/A270101/27111492/dtlmenu/drink/
キリンラガー(小瓶),1100,焼肉、鉄板焼き、ステーキ,北新地 名門,大阪府 大阪市北区 曾根崎新地1-4-25 新地MDビル 2F・3F,050-5597-5550,34.6978827,135.4965992,https://tabelog.com/osaka/A2701/A270101/27111765/dtlmenu/drink/
キリンラガー(小瓶),950,鉄板焼き、ステーキ、フレンチ,鉄板焼　季流,大阪府 大阪市北区 梅田 3-1-1 ホテルグランヴィア大阪  19F,050-5590-9124,34.701726,135.4963754,https://tabelog.com/osaka/A2701/A270101/27008704/dtlmenu/drink/
キリンラガー/中瓶,500,居酒屋、魚介料理・海鮮料理、日本酒バー,うたげどころ うぉっしゅ,大阪府 大阪市北区 曾根崎新地2-3-13 若杉大阪駅前ビル B1F,050-5590-0931,34.697794,135.4938986,https://tabelog.com/osaka/A2701/A270101/27088669/dtlmenu/drink/
キリンラガービール,760,うなぎ、和食（その他）,ひつまぶし名古屋備長 グランフロント大阪店,大阪府 大阪市北区 大深町 4-20 グランフロント大阪 　南館 7F,050-5868-6084,34.7053491,135.4945979,https://tabelog.com/osaka/A2701/A270101/27072440/dtlmenu/drink/
キリンラガービール,600,イタリアン、ピザ、パスタ,MAKIBI,大阪府 大阪市北区 西天満 3-1-27 メビウス西天満ビル 1F,050-5596-7690,34.6943123,135.5091563,https://tabelog.com/osaka/A2701/A270102/27108201/dtlmenu/drink/
キリンラガー生ビール,600,ビストロ、イタリアン、バル・バール,ブラッスリー・プティ・ポー,大阪府 大阪市北区 池田町 10-10-105,090-5646-7594,34.707718,135.5139075,https://tabelog.com/osaka/A2701/A270103/27015766/dtlmenu/drink/
キリン・ハードシードル,700,イタリアン、ピザ、パスタ,MAKIBI,大阪府 大阪市北区 西天満 3-1-27 メビウス西天満ビル 1F,050-5596-7690,34.6943123,135.5091563,https://tabelog.com/osaka/A2701/A270102/27108201/dtlmenu/drink/
キリン一番搾り,1100,ステーキ、ダイニングバー、ワインバー,ウルフギャング・ステーキハウス 大阪店,大阪府 大阪市北区 梅田 3-1-3 ルクア イーレ 10Ｆ,050-5571-6855,34.7028866,135.4953236,https://tabelog.com/osaka/A2701/A270101/27084039/dtlmenu/drink/
キリン一番搾り,800,串揚げ・串かつ、居酒屋、魚介料理・海鮮料理,串処 最上 北新地店,大阪府 大阪市北区 曾根崎新地1-10-16 永楽ビル  1F,06-6345-9085,34.6980434,135.4977038,https://tabelog.com/osaka/A2701/A270101/27001583/dtlmenu/drink/
キリン一番搾り,800,焼肉、懐石・会席料理、韓国料理,北新地焼肉 きらく,大阪府 大阪市北区 堂島 1-2-7 パーマリィイン堂島 2F,050-5589-4759,34.6962883,135.4991444,https://tabelog.com/osaka/A2701/A270101/27130269/dtlmenu/drink/
キリン一番搾り グラス(生),759,タイ料理、アジア・エスニック料理（その他）、バイキング,コサムイ バイ チェディルアン,大阪府 大阪市北区 梅田 2-2-22 ハービスエント 3F,06-6346-0606,34.6997829,135.4945698,https://tabelog.com/osaka/A2701/A270101/27079063/dtlmenu/drink/
キリン一番搾り ピッチャー(生),3135,タイ料理、アジア・エスニック料理（その他）、バイキング,コサムイ バイ チェディルアン,大阪府 大阪市北区 梅田 2-2-22 ハービスエント 3F,06-6346-0606,34.6997829,135.4945698,https://tabelog.com/osaka/A2701/A270101/27079063/dtlmenu/drink/
キリン一番搾り 中瓶,550,焼肉、しゃぶしゃぶ、ステーキ,焼肉たまき,大阪府 大阪市北区 黒崎町 3-22,050-5592-1900,34.7073176,135.5077292,https://tabelog.com/osaka/A2701/A270101/27092684/dtlmenu/drink/
キリン一番搾り 中瓶,605,居酒屋、焼鳥、郷土料理（その他）,宮崎料理 万作 グランフロント大阪店,大阪府 大阪市北区 大深町 4-20 グランフロント大阪  南館7Ｆ,050-5868-3016,34.7053491,135.4945979,https://tabelog.com/osaka/A2701/A270101/27072190/dtlmenu/drink/
キリン一番搾り 樽詰め生ビール 中.ジョッキ,740,うなぎ、和食（その他）,ひつまぶし名古屋備長 グランフロント大阪店,大阪府 大阪市北区 大深町 4-20 グランフロント大阪 　南館 7F,050-5868-6084,34.7053491,135.4945979,https://tabelog.com/osaka/A2701/A270101/27072440/dtlmenu/drink/
キリン一番搾り(ハーフ&ハーフ),730,アジア・エスニック料理（その他）、ステーキ、カフェ,バリラックス ザ ガーデン 梅田,大阪府 大阪市北区 梅田 1-9-20 大阪マルビル  3F,050-5589-7551,34.6998287,135.4970207,https://tabelog.com/osaka/A2701/A270101/27002144/dtlmenu/drink/
キリン一番搾り(生),690,アジア・エスニック料理（その他）、ステーキ、カフェ,バリラックス ザ ガーデン 梅田,大阪府 大阪市北区 梅田 1-9-20 大阪マルビル  3F,050-5589-7551,34.6998287,135.4970207,https://tabelog.com/osaka/A2701/A270101/27002144/dtlmenu/drink/
キリン一番搾り(生) グラス,500,野菜料理、無国籍料理、自然食,mus,大阪府 大阪市北区 豊崎 3-10-2 I＆F梅田 1F,06-6377-6363,34.7094583,135.4988084,https://tabelog.com/osaka/A2701/A270101/27014433/dtlmenu/drink/
キリン一番搾り(黒生),650,うなぎ、和食（その他）,ひつまぶし名古屋備長 グランフロント大阪店,大阪府 大阪市北区 大深町 4-20 グランフロント大阪 　南館 7F,050-5868-6084,34.7053491,135.4945979,https://tabelog.com/osaka/A2701/A270101/27072440/dtlmenu/drink/
キリン一番搾り(黒生),730,アジア・エスニック料理（その他）、ステーキ、カフェ,バリラックス ザ ガーデン 梅田,大阪府 大阪市北区 梅田 1-9-20 大阪マルビル  3F,050-5589-7551,34.6998287,135.4970207,https://tabelog.com/osaka/A2701/A270101/27002144/dtlmenu/drink/
ギネス,900,ダイニングバー、イタリアン、パスタ,シャンデリア テーブル,大阪府 大阪市北区 角田町 8-7 阪急うめだ本店  13F,050-3504-0300,34.7028186,135.4985323,https://tabelog.com/osaka/A2701/A270101/27068362/dtlmenu/drink/
ギネス,780,ステーキ、アメリカ料理、バイキング,ロウリーズ・ザ・プライムリブ 大阪,大阪府 大阪市北区 梅田 2-2-22 ハービスPLAZA ENT  5F,050-5593-4617,34.6997829,135.4945698,https://tabelog.com/osaka/A2701/A270101/27018310/dtlmenu/drink/
ギネス,748,とんかつ、洋食、カレー（その他）,epais,大阪府 大阪市北区 曽根崎新地 1-9-3 ニュー華ビル 3F,050-5890-4534,34.6982594,135.4988228,https://tabelog.com/osaka/A2701/A270101/27072441/dtlmenu/drink/
ギネス,700,バル・バール、パスタ、焼鳥,炭屋キッチン やまや,大阪府 大阪市北区 曽根崎 2-5-37,050-5590-8115,34.6990484,135.5012295,https://tabelog.com/osaka/A2701/A270101/27056522/dtlmenu/drink/
ギネス,900,イタリアン、バー、バル・バール,ゼックスウエスト ザ バー,大阪府 大阪市北区 梅田 2-2-22 ハービスPLAZA ENT  7F,050-5868-9945,34.6997829,135.4945698,https://tabelog.com/osaka/A2701/A270101/27003895/dtlmenu/drink/
ギネス,1045,ビアバー、ダイニングバー、洋食・欧風料理（その他）,ビアブルグ 梅田,大阪府 大阪市北区 芝田 1-8-1 D.D.HOUSE  1F,06-6375-2461,34.7070549,135.4973708,https://tabelog.com/osaka/A2701/A270101/27053633/dtlmenu/drink/
ギネス,700,フレンチ、ワインバー、西洋各国料理（その他）,ア ターブル,大阪府 大阪市北区 曽根崎新地 1-3-36 竹新ビル4F,06-6344-5610,34.6974937,135.4971883,https://tabelog.com/osaka/A2701/A270101/27085820/dtlmenu/drink/
ギネス,1100,ステーキ、ダイニングバー、ワインバー,ウルフギャング・ステーキハウス 大阪店,大阪府 大阪市北区 梅田 3-1-3 ルクア イーレ 10Ｆ,050-5571-6855,34.7028866,135.4953236,https://tabelog.com/osaka/A2701/A270101/27084039/dtlmenu/drink/
ギネス スタウト,748,中華料理、居酒屋、中華麺（その他）,北新地　響香,大阪府 大阪市北区 曽根崎新地 1-1-41 アストリアジロービル1F,050-5570-6387,34.6966913,135.5004286,https://tabelog.com/osaka/A2701/A270101/27081144/dtlmenu/drink/
ギネスビール,1300,鉄板焼き、ステーキ、フレンチ,鉄板焼　季流,大阪府 大阪市北区 梅田 3-1-1 ホテルグランヴィア大阪  19F,050-5590-9124,34.701726,135.4963754,https://tabelog.com/osaka/A2701/A270101/27008704/dtlmenu/drink/
ギネスビール,650,焼肉、ホルモン,万両 南森町店,大阪府 大阪市北区 南森町 1-2-14 ロイヤルハイツ　１Ｆ,06-6361-1371,34.6962687,135.5097088,https://tabelog.com/osaka/A2701/A270103/27002291/dtlmenu/drink/
ギネス生樽HALF,500,バー、洋食、カフェ,ホワイトラベル,大阪府 大阪市北区 東天満 2-10-23 サンエスト 1F,06-6948-5916,34.6983689,135.5127657,https://tabelog.com/osaka/A2701/A270103/27061897/dtlmenu/drink/
ギネス生樽PINT,800,バー、洋食、カフェ,ホワイトラベル,大阪府 大阪市北区 東天満 2-10-23 サンエスト 1F,06-6948-5916,34.6983689,135.5127657,https://tabelog.com/osaka/A2701/A270103/27061897/dtlmenu/drink/
ギネス黒ビール,980,焼肉、すき焼き、しゃぶしゃぶ,和牛 まつした 上通り店,大阪府 大阪市北区 曽根崎新地 1-3-30 北新地幸田ビル2F,050-5589-9133,34.69651,135.5018094,https://tabelog.com/osaka/A2701/A270101/27086935/dtlmenu/drink/
クラシックラガー〈瓶〉,693,焼肉、ホルモン、ステーキ,焼肉 輝 北新地,大阪府 大阪市北区 堂島 1-3-17 スリーエイトビル 1F,06-6347-0785,34.6966814,135.4972159,https://tabelog.com/osaka/A2701/A270101/27118512/dtlmenu/drink/
グランドキリンIPA 生ビール,1000,中華料理、中華麺（その他）、ビストロ,Az/ビーフン東 大阪店,大阪府 大阪市北区 西天満 4-4-8 B1F,050-5596-4963,34.6975565,135.5047462,https://tabelog.com/osaka/A2701/A270103/27060666/dtlmenu/drink/
コロナ,770,焼肉、韓国料理、冷麺,焼肉冷麺 ユッチャン 北新地店,大阪府 大阪市北区 曽根崎新地 1-3-9 GOTS北新地ビル 1F,050-5872-2771,34.697513,135.4962862,https://tabelog.com/osaka/A2701/A270101/27120854/dtlmenu/drink/
コロナ,1200,ステーキ、ダイニングバー、ワインバー,ウルフギャング・ステーキハウス 大阪店,大阪府 大阪市北区 梅田 3-1-3 ルクア イーレ 10Ｆ,050-5571-6855,34.7028866,135.4953236,https://tabelog.com/osaka/A2701/A270101/27084039/dtlmenu/drink/
コロナ,850,イタリアン、バー、バル・バール,ゼックスウエスト ザ バー,大阪府 大阪市北区 梅田 2-2-22 ハービスPLAZA ENT  7F,050-5868-9945,34.6997829,135.4945698,https://tabelog.com/osaka/A2701/A270101/27003895/dtlmenu/drink/
コロナ,600,洋食、ビストロ、ワインバー,ビストロ テソロン ウナ ベッコ,大阪府 大阪市北区 大淀中 2-4-12 パナッシュコート梅田北 1F,050-5869-5402,34.7034584,135.485508,https://tabelog.com/osaka/A2701/A270108/27045748/dtlmenu/drink/
コロナ エキストラ,690,バル・バール、野菜料理、自然食,おやさいバル TIERRA,大阪府 大阪市北区 中津 1-5-2,06-6372-0323,34.7099563,135.4957363,https://tabelog.com/osaka/A2701/A270101/27054803/dtlmenu/drink/
コロナビール,715,メキシコ料理、鳥料理、バル・バール,墨国回転鶏食堂 ルクアイーレ店,大阪府 大阪市北区 梅田 3-1-3,050-5571-6878,34.7028866,135.4953236,https://tabelog.com/osaka/A2701/A270101/27084367/dtlmenu/drink/
コロナビール,748,メキシコ料理、居酒屋、焼鳥,墨国回転鶏料理 天満店,大阪府 大阪市北区 池田町 8-4,050-5868-5965,34.7069705,135.5131622,https://tabelog.com/osaka/A2701/A270103/27011009/dtlmenu/drink/
コロナビール,600,インド料理、インドカレー、居酒屋,インド料理 MAHARAJA,大阪府 大阪市北区 梅田 1-2-2-B1000 大阪駅前第2ビルB1,050-5869-5835,34.6989342,135.4979539,https://tabelog.com/osaka/A2701/A270101/27005099/dtlmenu/drink/
サッポロ ヱビス マイスター生,2200,バー、ラウンジ、スイーツ（その他）,40スカイバー＆ラウンジ,大阪府 大阪市北区 中之島 3-2-4 中之島フェスティバルタワー・ウェスト コンラッド大阪 40F,06-6222-0111,34.6935357,135.4957224,https://tabelog.com/osaka/A2701/A270102/27097670/dtlmenu/drink/
サッポロ ヱビス(小瓶),650,魚介料理・海鮮料理、和食（その他）、居酒屋,はまぐり庵 -吉祥別邸-,大阪府 大阪市北区 芝田 1-1-3 阪急三番街 南館　B2F,050-5457-7440,34.7042385,135.4984654,https://tabelog.com/osaka/A2701/A270101/27077831/dtlmenu/drink/
サッポロ 赤星 瓶,660,魚介料理・海鮮料理、居酒屋、創作料理,マッシュアップ,大阪府 大阪市北区 天神橋 6-3-26,050-5869-4466,34.7100124,135.5126763,https://tabelog.com/osaka/A2701/A270103/27031630/dtlmenu/drink/
サッポロ 赤星(中瓶),470,魚介料理・海鮮料理、居酒屋、日本酒バー,ひもの野郎 梅田第4ビル本店,大阪府 大阪市北区 梅田 1-11-4 大阪駅前第4ビル  B2-71号72号,090-2196-5186,34.7000328,135.4991214,https://tabelog.com/osaka/A2701/A270101/27062999/dtlmenu/drink/
サッポロ 黒ラベル,715,とんかつ、洋食、カレー（その他）,epais,大阪府 大阪市北区 曽根崎新地 1-9-3 ニュー華ビル 3F,050-5890-4534,34.6982594,135.4988228,https://tabelog.com/osaka/A2701/A270101/27072441/dtlmenu/drink/
サッポロ 黒ラベル(生ビール),720,魚介料理・海鮮料理、和食（その他）、居酒屋,はまぐり庵 -吉祥別邸-,大阪府 大阪市北区 芝田 1-1-3 阪急三番街 南館　B2F,050-5457-7440,34.7042385,135.4984654,https://tabelog.com/osaka/A2701/A270101/27077831/dtlmenu/drink/
サッポロエビス,700,懐石・会席料理、割烹・小料理、京料理,おもてなし茶屋　咲扇,大阪府 大阪市北区 曽根崎新地 1-1-9 谷安キャバリエーレビル,06-6348-5557,34.6978481,135.498431,https://tabelog.com/osaka/A2701/A270102/27042295/dtlmenu/drink/
サッポロエビス(小瓶),950,鉄板焼き、ステーキ、フレンチ,鉄板焼　季流,大阪府 大阪市北区 梅田 3-1-1 ホテルグランヴィア大阪  19F,050-5590-9124,34.701726,135.4963754,https://tabelog.com/osaka/A2701/A270101/27008704/dtlmenu/drink/
サッポロプレミアム,500,ビストロ、フレンチ、ワインバー,ビストロケ ヤマネ,大阪府 大阪市北区 堂島 1-3-16 堂島メリーセンタービル 1F,080-9167-0326,34.6966074,135.4972251,https://tabelog.com/osaka/A2701/A270101/27095344/dtlmenu/drink/
サッポロラガー,780,割烹・小料理、焼鳥、居酒屋,鶏割烹 ならや,大阪府 大阪市北区 曽根崎新地 1-7-8 新日本新地ビル本館 3F,050-5596-4987,34.6970511,135.5001156,https://tabelog.com/osaka/A2701/A270101/27107513/dtlmenu/drink/
サッポロラガー 瓶,700,割烹・小料理、天ぷら、おでん,ご馳走 ね音,大阪府 大阪市北区 天神橋 5-3-22 安田ビル 2F,050-5597-8331,34.7077688,135.5121856,https://tabelog.com/osaka/A2701/A270103/27096416/dtlmenu/drink/
サッポロラガー(赤星)<中瓶>,580,ダイニングバー、焼鳥、イタリアン,カッシーワ 茶屋町店,大阪府 大阪市北区 芝田 1-7-2 阪急かっぱ横丁  2F,050-5872-5750,34.7071744,135.4980634,https://tabelog.com/osaka/A2701/A270101/27075650/dtlmenu/drink/
サッポロラガー瓶ビール,600,割烹・小料理、魚介料理・海鮮料理、天ぷら,北新地　和平,大阪府 大阪市北区 曾根崎新地1-7-8 新日本新地ビル1F,06-6345-5236,34.6970511,135.5001156,https://tabelog.com/osaka/A2701/A270101/27060654/dtlmenu/drink/
サッポロラガー瓶ビール(中瓶),660,焼肉、ホルモン、居酒屋,焼肉マル 北新地店,大阪府 大阪市北区 曽根崎新地 1-5-18 零北新地ビル　１０Ｆ,050-5890-3488,34.6979906,135.4970226,https://tabelog.com/osaka/A2701/A270101/27006722/dtlmenu/drink/
サッポロ瓶ビール,770,魚介料理・海鮮料理、割烹・小料理、懐石・会席料理,ろっこん,大阪府 大阪市北区 曽根崎新地 1-1-15,050-5869-7586,34.6939689,135.5059383,https://tabelog.com/osaka/A2701/A270101/27052272/dtlmenu/drink/
サッポロ生ビール,880,割烹・小料理、天ぷら、魚介料理・海鮮料理,粋魚 むらばやし,大阪府 大阪市北区 堂島 1-2-17 大日ビルB1F,050-5597-8548,34.6967104,135.4988084,https://tabelog.com/osaka/A2701/A270101/27042412/dtlmenu/drink/
サッポロ生ビール,400,イタリアン、バル・バール,アネロ,大阪府 大阪市北区 池田町 14-12,不明の為情報お待ちしております,34.7084411,135.5129867,https://tabelog.com/osaka/A2701/A270103/27079346/dtlmenu/drink/
サッポロ生ビール,700,中華料理、中華麺（その他）、ビストロ,Az/ビーフン東 大阪店,大阪府 大阪市北区 西天満 4-4-8 B1F,050-5596-4963,34.6975565,135.5047462,https://tabelog.com/osaka/A2701/A270103/27060666/dtlmenu/drink/
サッポロ生ビール 黒ラベル(樽生),803,スペイン料理、バル・バール、居酒屋,Bar Espanol LA BODEGA 大阪店,大阪府 大阪市北区 大深町 4-20 グランフロント大阪 南館 7F,050-5890-8807,34.7053491,135.4945979,https://tabelog.com/osaka/A2701/A270101/27072609/dtlmenu/drink/
サッポロ生ビール中,600,割烹・小料理、魚介料理・海鮮料理、天ぷら,北新地　和平,大阪府 大阪市北区 曾根崎新地1-7-8 新日本新地ビル1F,06-6345-5236,34.6970511,135.5001156,https://tabelog.com/osaka/A2701/A270101/27060654/dtlmenu/drink/
サッポロ生ビール小,400,割烹・小料理、魚介料理・海鮮料理、天ぷら,北新地　和平,大阪府 大阪市北区 曾根崎新地1-7-8 新日本新地ビル1F,06-6345-5236,34.6970511,135.5001156,https://tabelog.com/osaka/A2701/A270101/27060654/dtlmenu/drink/
サッポロ生ビール黒ラベル〈樽生〉,836,カフェ、ハンバーガー、ステーキ,GOOD PROVISION NEWYORK,大阪府 大阪市北区 梅田 3-1-3 ルクア  イーレ　10F,050-5589-9447,34.7028866,135.4953236,https://tabelog.com/osaka/A2701/A270101/27083744/dtlmenu/drink/
サッポロ赤星,880,寿司、割烹・小料理、魚介料理・海鮮料理,鮨 仙酢 総本店,大阪府 大阪市北区 曾根崎新地1-5-32 ボネールビル B1F,050-5869-2107,34.6975723,135.4978879,https://tabelog.com/osaka/A2701/A270101/27119787/dtlmenu/drink/
サッポロ赤星 中瓶,700,割烹・小料理、魚介料理・海鮮料理、日本酒バー,御料理 うえの,大阪府 大阪市北区 曽根崎新地 1-9-12 3F,050-5456-8960,34.6982594,135.4988228,https://tabelog.com/osaka/A2701/A270101/27095129/dtlmenu/drink/
サッポロ赤星大瓶,759,立ち飲み居酒屋・バー,立ち飲み じんべえ,大阪府 大阪市北区 曾根崎2-14-7 グランデ曽根崎ビル 1F,050-5589-6682,34.7009651,135.501073,https://tabelog.com/osaka/A2701/A270101/27087097/dtlmenu/drink/
サッポロ黒ラベル,470,居酒屋、焼鳥、串焼き,どんたく,大阪府 大阪市北区 梅田 1-2-2 大阪駅前第2ビル  B2F,050-5872-8806,34.6989342,135.4979539,https://tabelog.com/osaka/A2701/A270101/27000696/dtlmenu/drink/
サッポロ黒ラベル 生,430,魚介料理・海鮮料理、居酒屋、日本酒バー,ひもの野郎 梅田第4ビル本店,大阪府 大阪市北区 梅田 1-11-4 大阪駅前第4ビル  B2-71号72号,090-2196-5186,34.7000328,135.4991214,https://tabelog.com/osaka/A2701/A270101/27062999/dtlmenu/drink/
サッポロ黒ラベル(中瓶),900,割烹・小料理、懐石・会席料理、和食（その他）,浪速割烹 昇,大阪府 大阪市北区 大淀南 1-3-12,050-5589-8941,34.7038392,135.4903127,https://tabelog.com/osaka/A2701/A270101/27095612/dtlmenu/drink/
サッポロ黒ラベル350ml,370,うどん、カレーうどん、うどんすき,さぬきうどん 四国屋 本店,大阪府 大阪市北区 梅田 1-2-2 大阪駅前第2ビル  B2F,050-5589-6477,34.6989342,135.4979539,https://tabelog.com/osaka/A2701/A270101/27000362/dtlmenu/drink/
サントリー  ザ・プレミアム・モルツ 小瓶,900,鉄板焼き、魚介料理・海鮮料理、ステーキ,神戸牛 鉄板焼 リオ 大阪マルビル店,大阪府 大阪市北区 梅田 1-9-20 大阪マルビル  7F,06-6346-1321,34.6998287,135.4970207,https://tabelog.com/osaka/A2701/A270101/27006177/dtlmenu/drink/
サントリー  ザ・プレミアム・モルツ〈香る〉エール 生,900,鉄板焼き、魚介料理・海鮮料理、ステーキ,神戸牛 鉄板焼 リオ 大阪マルビル店,大阪府 大阪市北区 梅田 1-9-20 大阪マルビル  7F,06-6346-1321,34.6998287,135.4970207,https://tabelog.com/osaka/A2701/A270101/27006177/dtlmenu/drink/
サントリー オールド ミニボトル,600,串揚げ・串かつ、居酒屋、和食（その他）,知留久 曽根崎本店,大阪府 大阪市北区 曽根崎 2-9-9,050-5596-7634,34.7002522,135.5009268,https://tabelog.com/osaka/A2701/A270101/27000479/dtlmenu/drink/
サントリー ザ プレミアムモルツ,550,中華料理、魚介料理・海鮮料理、四川料理,中國菜 心香,大阪府 大阪市北区 西天満 5-6-26,050-5592-8286,34.6989007,135.5082172,https://tabelog.com/osaka/A2701/A270103/27085334/dtlmenu/drink/
サントリー ザプレミアムモルツ 香るエール 中グラス,935,中華料理、広東料理,中国菜エスサワダ,大阪府 大阪市北区 西天満 4-6-28 ニュー真砂ビル 1F,050-5592-8876,34.696289,135.5050684,https://tabelog.com/osaka/A2701/A270102/27095063/dtlmenu/drink/
サントリー ザ・モルツ,459,居酒屋、魚介料理・海鮮料理、ろばた焼き,鯛之鯛 梅田店,大阪府 大阪市北区 堂山町 1-2 R&Eビル B1F,050-5590-9175,34.7025117,135.5047002,https://tabelog.com/osaka/A2701/A270101/27091917/dtlmenu/drink/
サントリー ザ・モルツ 大瓶,990,居酒屋、魚介料理・海鮮料理、日本酒バー,炭と地酒とたしなみワイン Kai本店 醸す,大阪府 大阪市北区 堂島浜 1-1-15 堂浜第2ビル B1F,050-5570-8252,34.6957247,135.4999131,https://tabelog.com/osaka/A2701/A270101/27042896/dtlmenu/drink/
サントリー プレミアムモルツ,600,串揚げ・串かつ、居酒屋、和食（その他）,知留久 曽根崎本店,大阪府 大阪市北区 曽根崎 2-9-9,050-5596-7634,34.7002522,135.5009268,https://tabelog.com/osaka/A2701/A270101/27000479/dtlmenu/drink/
サントリー プレミアムモルツ 生,730,焼肉、ステーキ、懐石・会席料理,北新地 すがはら,大阪府 大阪市北区 堂島 1-4-2 ビールディング北新地　２Ｆ,050-5868-7952,34.696101,135.4982009,https://tabelog.com/osaka/A2701/A270101/27000219/dtlmenu/drink/
サントリー プレミアムモルツ(小瓶),650,魚介料理・海鮮料理、和食（その他）、居酒屋,はまぐり庵 -吉祥別邸-,大阪府 大阪市北区 芝田 1-1-3 阪急三番街 南館　B2F,050-5457-7440,34.7042385,135.4984654,https://tabelog.com/osaka/A2701/A270101/27077831/dtlmenu/drink/
サントリー プレミアムモルツ(瓶),1320,懐石・会席料理、割烹・小料理、ふぐ,雅しゅとうとう,大阪府 大阪市北区 堂島 1-5-2 フェザービル 1F,06-6348-0141,34.696056,135.4968569,https://tabelog.com/osaka/A2701/A270101/27012489/dtlmenu/drink/
サントリー マスターズ ドリーム,1900,ラウンジ、カフェ、バー,ザ ロビーラウンジ,大阪府 大阪市北区 梅田 2-5-25 ザ・リッツ・カールトン大阪  1F,06-6343-7020,34.69834,135.4925207,https://tabelog.com/osaka/A2701/A270101/27000698/dtlmenu/drink/
サントリー マスターズドリーム(生),880,懐石・会席料理、和食（その他）、魚介料理・海鮮料理,北新地 湯木 新店,大阪府 大阪市北区 堂島 1-5-39 マルタビル 1F,050-5869-6949,34.6961415,135.4969674,https://tabelog.com/osaka/A2701/A270101/27073634/dtlmenu/drink/
サントリー モルツ 中瓶,730,焼肉、ステーキ、懐石・会席料理,北新地 すがはら,大阪府 大阪市北区 堂島 1-4-2 ビールディング北新地　２Ｆ,050-5868-7952,34.696101,135.4982009,https://tabelog.com/osaka/A2701/A270101/27000219/dtlmenu/drink/
サントリー モルツ生,550,魚介料理・海鮮料理、居酒屋、創作料理,マッシュアップ,大阪府 大阪市北区 天神橋 6-3-26,050-5869-4466,34.7100124,135.5126763,https://tabelog.com/osaka/A2701/A270103/27031630/dtlmenu/drink/
サントリー 生ビール,880,イタリアン、創作料理、ダイニングバー,人家,大阪府 大阪市北区 曽根崎新地 1-3-3 好陽ビル　Ｂ１Ｆ,050-5590-9679,34.6973226,135.4969674,https://tabelog.com/osaka/A2701/A270101/27000741/dtlmenu/drink/
サントリービール「ザ・モルツ」,450,飲茶・点心、中華料理、居酒屋,上海食苑 本店 ,大阪府 大阪市北区 池田町 12-4,050-5594-1759,34.7077323,135.5132805,https://tabelog.com/osaka/A2701/A270103/27000509/dtlmenu/drink/
サントリープレミアムモルツ,700,懐石・会席料理、割烹・小料理、京料理,おもてなし茶屋　咲扇,大阪府 大阪市北区 曽根崎新地 1-1-9 谷安キャバリエーレビル,06-6348-5557,34.6978481,135.498431,https://tabelog.com/osaka/A2701/A270102/27042295/dtlmenu/drink/
サントリープレミアムモルツ 生ビール(中),650,お好み焼き、鉄板焼き、串揚げ・串かつ,田なか,大阪府 大阪市北区 曽根崎新地 1-1-23 堂島センタービル　１Ｆ,050-5570-5106,34.6969002,135.4989189,https://tabelog.com/osaka/A2701/A270101/27002035/dtlmenu/drink/
サントリーモルツ 樽生ビール,528,居酒屋、野菜料理、自然食,花様 阪急梅田,大阪府 大阪市北区 芝田 1-7-2 阪急かっぱ横丁  2F,050-5594-1783,34.7071744,135.4980634,https://tabelog.com/osaka/A2701/A270101/27049246/dtlmenu/drink/
ザ プレミアモルツ,649,中華料理、居酒屋、中華麺（その他）,北新地　響香,大阪府 大阪市北区 曽根崎新地 1-1-41 アストリアジロービル1F,050-5570-6387,34.6966913,135.5004286,https://tabelog.com/osaka/A2701/A270101/27081144/dtlmenu/drink/
ザ・プレミアムモルツ,800,フレンチ,RESTAURANT LES SOUVENIRS,大阪府 大阪市北区 曽根崎新地 1-2-10 第3鈴木ビル 5F,050-5457-3429,34.7009597,135.5007968,https://tabelog.com/osaka/A2701/A270101/27119212/dtlmenu/drink/
ザ・プレミアムモルツ,650,バー,ハイボールバー梅田1923,大阪府 大阪市北区 芝田 2-1-3 梅仙堂ビル1F,06-6375-2300,34.7053597,135.4965808,https://tabelog.com/osaka/A2701/A270101/27059872/dtlmenu/drink/
ザ・プレミアムモルツ,630,居酒屋、魚介料理・海鮮料理、日本酒バー,旬魚 旬菜 咲くら 梅田阪急グランドビル店,大阪府 大阪市北区 角田町 8-47 阪急グランドビル  27F,06-6315-7780,34.7029862,135.4990478,https://tabelog.com/osaka/A2701/A270101/27002077/dtlmenu/drink/
ザ・プレミアムモルツ,1100,ステーキ、ダイニングバー、ワインバー,ウルフギャング・ステーキハウス 大阪店,大阪府 大阪市北区 梅田 3-1-3 ルクア イーレ 10Ｆ,050-5571-6855,34.7028866,135.4953236,https://tabelog.com/osaka/A2701/A270101/27084039/dtlmenu/drink/
ザ・プレミアムモルツ (中瓶),800,炭火焼き、魚介料理・海鮮料理、海鮮丼,はまじま,大阪府 大阪市北区 堂島浜 1-1-8,050-5890-1236,34.6952097,135.500063,https://tabelog.com/osaka/A2701/A270102/27004668/dtlmenu/drink/
ザ・プレミアムモルツ 中瓶,800,居酒屋、魚介料理・海鮮料理、日本酒バー,旬魚 旬菜 咲くら 梅田阪急グランドビル店,大阪府 大阪市北区 角田町 8-47 阪急グランドビル  27F,06-6315-7780,34.7029862,135.4990478,https://tabelog.com/osaka/A2701/A270101/27002077/dtlmenu/drink/
ザ・プレミアムモルツ 香るエール,850,居酒屋、魚介料理・海鮮料理、ステーキ,ダイナミックキッチン＆バー 燦 大阪店,大阪府 大阪市北区 西天満 4-15-10 あいおいニッセイ同和損保フェニックスタワー 27F,050-3164-0378,34.6978834,135.5010999,https://tabelog.com/osaka/A2701/A270101/27002147/dtlmenu/drink/
ザ・プレミアムモルツ(中瓶),1240,懐石・会席料理、すき焼き、魚介料理・海鮮料理,神戸吉兆 リーガロイヤルホテル店,大阪府 大阪市北区 中之島 5-3-68 リーガロイヤルホテル  B1F,06-6448-3168,34.690167,135.48734,https://tabelog.com/osaka/A2701/A270108/27000802/dtlmenu/drink/
ザ・プレミアムモルツ(中瓶),1430,串揚げ・串かつ、割烹・小料理、とんかつ,北新地 串揚げ かな山,大阪府 大阪市北区 曾根崎新地1-4-25 B1F,050-5597-5519,34.6978827,135.4965992,https://tabelog.com/osaka/A2701/A270101/27111492/dtlmenu/drink/
ザ・プレミアムモルツ(香る)エール,825,とんかつ、洋食、カレー（その他）,epais,大阪府 大阪市北区 曽根崎新地 1-9-3 ニュー華ビル 3F,050-5890-4534,34.6982594,135.4988228,https://tabelog.com/osaka/A2701/A270101/27072441/dtlmenu/drink/
ザ・プレミアムモルツ・マスターズドリーム (生),710,炭火焼き、魚介料理・海鮮料理、海鮮丼,はまじま,大阪府 大阪市北区 堂島浜 1-1-8,050-5890-1236,34.6952097,135.500063,https://tabelog.com/osaka/A2701/A270102/27004668/dtlmenu/drink/
ザ・プレミアムモルツ・香るエール,715,中華料理、餃子、バル・バール,中華バル サワダ,大阪府 大阪市北区 曾根崎2-9-17 お初天神裏参道,050-5456-0897,34.7004648,135.5008857,https://tabelog.com/osaka/A2701/A270101/27113311/dtlmenu/drink/
ザ・プレミアムモルツ中瓶,550,焼鳥、居酒屋、鳥料理,井ぐち,大阪府 大阪市北区 曽根崎 2-10-19 河合ビル　１Ｆ,050-5869-8776,34.7007326,135.5009073,https://tabelog.com/osaka/A2701/A270101/27010072/dtlmenu/drink/
ザ・プレミアムモルツ生,638,フレンチ、ビストロ、ステーキ,俺のフレンチ 梅田,大阪府 大阪市北区 小松原町 1-7 ミスターりんビル 1F,06-6360-9405,34.7021835,135.500852,https://tabelog.com/osaka/A2701/A270101/27092618/dtlmenu/drink/
ザ・プレミアムモルツ生,380,居酒屋、魚介料理・海鮮料理、立ち飲み居酒屋・バー,座頭市,大阪府 大阪市北区 曽根崎新地 1-3-21 日宝スタービル 1F,06-6147-3009,34.6994706,135.5011466,https://tabelog.com/osaka/A2701/A270101/27076655/dtlmenu/drink/
ザ・プレミアムモルツ生ビール(お得ジョッキ),680,焼鳥、居酒屋、鳥料理,井ぐち,大阪府 大阪市北区 曽根崎 2-10-19 河合ビル　１Ｆ,050-5869-8776,34.7007326,135.5009073,https://tabelog.com/osaka/A2701/A270101/27010072/dtlmenu/drink/
ザ・プレミアムモルツ生ビール(中),620,お好み焼き、居酒屋、ハンバーグ,宮生,大阪府 大阪市北区 曽根崎新地 1丁目5-4 スプレッドビル 1F,050-5868-5838,34.6977334,135.4974829,https://tabelog.com/osaka/A2701/A270101/27005061/dtlmenu/drink/
ザ・プレミアムモルツ生ビール(中/ジョッキ),550,焼鳥、居酒屋、鳥料理,井ぐち,大阪府 大阪市北区 曽根崎 2-10-19 河合ビル　１Ｆ,050-5869-8776,34.7007326,135.5009073,https://tabelog.com/osaka/A2701/A270101/27010072/dtlmenu/drink/
ザ・プレミアムモルツ生ビール(小/タンブラー),480,焼鳥、居酒屋、鳥料理,井ぐち,大阪府 大阪市北区 曽根崎 2-10-19 河合ビル　１Ｆ,050-5869-8776,34.7007326,135.5009073,https://tabelog.com/osaka/A2701/A270101/27010072/dtlmenu/drink/
ザ・プレミアムモルツ香るエール(中),1100,串揚げ・串かつ、割烹・小料理、とんかつ,北新地 串揚げ かな山,大阪府 大阪市北区 曾根崎新地1-4-25 B1F,050-5597-5519,34.6978827,135.4965992,https://tabelog.com/osaka/A2701/A270101/27111492/dtlmenu/drink/
ザ・プレミアムモルツ香るエール(小),770,串揚げ・串かつ、割烹・小料理、とんかつ,北新地 串揚げ かな山,大阪府 大阪市北区 曾根崎新地1-4-25 B1F,050-5597-5519,34.6978827,135.4965992,https://tabelog.com/osaka/A2701/A270101/27111492/dtlmenu/drink/
ザ・プレミアム・モルツ,429,焼肉、ホルモン、居酒屋,大衆 焼き肉ホルモン 大松,大阪府 大阪市北区 曾根崎 2-8-15 K'sスクエアビル 1F,050-5595-8159,34.7000017,135.5008199,https://tabelog.com/osaka/A2701/A270101/27103974/dtlmenu/drink/
ザ・プレミアム・モルツ,630,ダイニングバー、バル・バール、ビアバー,Whisky Dining WWW.W,大阪府 大阪市北区 大深町 3-1 グランフロント大阪 ナレッジキャピタル 2F,050-3199-1465,34.7059399,135.4944627,https://tabelog.com/osaka/A2701/A270101/27072204/dtlmenu/drink/
ザ・プレミアム・モルツ,680,居酒屋、魚介料理・海鮮料理、鍋（その他）,近畿大学水産研究所 グランフロント大阪店,大阪府 大阪市北区 大深町 3-1 グランフロント大阪 北館 6F,050-5594-2613,34.7053446,135.4945926,https://tabelog.com/osaka/A2701/A270101/27072530/dtlmenu/drink/
ザ・プレミアム・モルツ マスターズ ドリーム,720,ダイニングバー、バル・バール、ビアバー,Whisky Dining WWW.W,大阪府 大阪市北区 大深町 3-1 グランフロント大阪 ナレッジキャピタル 2F,050-3199-1465,34.7059399,135.4944627,https://tabelog.com/osaka/A2701/A270101/27072204/dtlmenu/drink/
ザ・プレミアム・モルツ 中瓶,650,割烹・小料理、魚介料理・海鮮料理、鍋（その他）,同心町 和食 瑞,大阪府 大阪市北区 同心 2-4-13 ヴェール同心 1F,050-5456-2430,34.702401,135.5140549,https://tabelog.com/osaka/A2701/A270103/27113675/dtlmenu/drink/
ザ・プレミアム・モルツ 香るエール,850,居酒屋、魚介料理・海鮮料理、ステーキ,ダイナミックキッチン＆バー 燦 ヒルトンプラザウエスト店,大阪府 大阪市北区 梅田 2-2-2 ヒルトンプラザウエスト  6F,050-5890-5193,34.6999702,135.4952544,https://tabelog.com/osaka/A2701/A270101/27006519/dtlmenu/drink/
ザ・プレミアム・モルツ(小),440,割烹・小料理、魚介料理・海鮮料理、鳥料理,心の館 清水,大阪府 大阪市北区 曽根崎 2-2-11 安田ビル　１Ｆ,06-6365-5560,34.6992328,135.5014228,https://tabelog.com/osaka/A2701/A270101/27013883/dtlmenu/drink/
ザ・プレミアム・モルツ(小),430,焼肉、韓国料理、冷麺,白雲台 グランフロント大阪店,大阪府 大阪市北区 大深町 4-20 グランフロント大阪  南館 7F,050-5869-3256,34.7053491,135.4945979,https://tabelog.com/osaka/A2701/A270101/27072588/dtlmenu/drink/
ザ・プレミアム・モルツ(小瓶),800,ビストロ、フレンチ、バル・バール,シャンパン食堂,大阪府 大阪市北区 堂島 1-3-20 阪口ビルＢ１,050-5869-4481,34.6969896,135.4972251,https://tabelog.com/osaka/A2701/A270101/27058412/dtlmenu/drink/
ザ・プレミアム・モルツ(小瓶),1100,焼肉、鉄板焼き、ステーキ,北新地 名門,大阪府 大阪市北区 曾根崎新地1-4-25 新地MDビル 2F・3F,050-5597-5550,34.6978827,135.4965992,https://tabelog.com/osaka/A2701/A270101/27111765/dtlmenu/drink/
ザ・プレミアム・モルツ(小瓶),1100,焼肉、鉄板焼き、ステーキ,北新地 名門,大阪府 大阪市北区 曾根崎新地1-4-25 新地MDビル 2F・3F,050-5597-5550,34.6978827,135.4965992,https://tabelog.com/osaka/A2701/A270101/27111765/dtlmenu/drink/
ザ・プレミアム・モルツ<香る>エール(樽生),550,バル・バール、イタリアン、魚介料理・海鮮料理,魚deバール　ウオチカ。,大阪府 大阪市北区 角田町 梅田地下街2-8 WHITYうめだノースモール2,06-6311-4782,34.7026191,135.4997952,https://tabelog.com/osaka/A2701/A270101/27058117/dtlmenu/drink/
ザ・プレミアム・モルツ〈香る〉エール,550,ダイニングバー、イタリアン、バル・バール,BELLA BOCCA 阪急梅田店,大阪府 大阪市北区 芝田 1-3-13 B1F,050-5592-7632,34.7060915,135.4974692,https://tabelog.com/osaka/A2701/A270101/27066961/dtlmenu/drink/
ザ・プレミアム・モルツ《樽生》,660,飲茶・点心、中華料理、餃子,香港海鮮飲茶樓 ブリーゼブリーゼ,大阪府 大阪市北区 梅田 2-4-9 ブリーゼブリーゼ  6F,050-5869-6862,34.6986205,135.4939534,https://tabelog.com/osaka/A2701/A270101/27018185/dtlmenu/drink/
ザ・プレミアム・モルツお得ジョッキ,528,焼肉、ステーキ、バル・バール,街の肉バルBuff 南森町店,大阪府 大阪市北区 天神橋 3-2-19 ドエル南森町 1F,06-6881-5529,34.6998189,135.5111035,https://tabelog.com/osaka/A2701/A270103/27068969/dtlmenu/drink/
ザ・プレミアム・モルツビール,450,うどん、うどんすき,讃岐うどん 今雪,大阪府 大阪市北区 神山町 3-10 クラウンマエダビル 1F,050-5590-1677,34.7029999,135.5060683,https://tabelog.com/osaka/A2701/A270101/27067874/dtlmenu/drink/
ザ・プレミアム・モルツ生ビール,748,焼肉、韓国料理、冷麺,焼肉冷麺 ユッチャン 北新地店,大阪府 大阪市北区 曽根崎新地 1-3-9 GOTS北新地ビル 1F,050-5872-2771,34.697513,135.4962862,https://tabelog.com/osaka/A2701/A270101/27120854/dtlmenu/drink/
ザ・プレミアム・モルツ生中,418,焼肉、ステーキ、バル・バール,街の肉バルBuff 南森町店,大阪府 大阪市北区 天神橋 3-2-19 ドエル南森町 1F,06-6881-5529,34.6998189,135.5111035,https://tabelog.com/osaka/A2701/A270103/27068969/dtlmenu/drink/
ザ・プレミアム・モルツ香るエール,600,中華料理、餃子、担々麺,サワダ飯店,大阪府 大阪市北区 小松原町 2-4 富国生命ビル B2F,050-5872-2200,34.7022777,135.5002261,https://tabelog.com/osaka/A2701/A270101/27120248/dtlmenu/drink/
スーパードライ,800,焼肉、居酒屋、牛料理,黒毛和牛焼肉 虎斑 北新地店,大阪府 大阪市北区 曽根崎新地 1-5-21 松木興産ビル 2F,050-5570-3595,34.6979791,135.497262,https://tabelog.com/osaka/A2701/A270101/27123854/dtlmenu/drink/
スーパードライ,800,フレンチ,RESTAURANT LES SOUVENIRS,大阪府 大阪市北区 曽根崎新地 1-2-10 第3鈴木ビル 5F,050-5457-3429,34.7009597,135.5007968,https://tabelog.com/osaka/A2701/A270101/27119212/dtlmenu/drink/
スーパードライ(中瓶),600,中華料理、餃子、担々麺,サワダ飯店,大阪府 大阪市北区 小松原町 2-4 富国生命ビル B2F,050-5872-2200,34.7022777,135.5002261,https://tabelog.com/osaka/A2701/A270101/27120248/dtlmenu/drink/
スーパードライ(中瓶),1210,串揚げ・串かつ、割烹・小料理、とんかつ,北新地 串揚げ かな山,大阪府 大阪市北区 曾根崎新地1-4-25 B1F,050-5597-5519,34.6978827,135.4965992,https://tabelog.com/osaka/A2701/A270101/27111492/dtlmenu/drink/
スーパードライ(瓶),605,焼きとん、焼酎バー、豚料理,串焼き 焼とんyaたゆたゆ お初天神店,大阪府 大阪市北区 曽根崎 2-10-7 1F,050-5571-6865,34.7009597,135.5007968,https://tabelog.com/osaka/A2701/A270101/27084212/dtlmenu/drink/
スーパードライ〈瓶〉,693,焼肉、ホルモン、ステーキ,焼肉 輝 北新地,大阪府 大阪市北区 堂島 1-3-17 スリーエイトビル 1F,06-6347-0785,34.6966814,135.4972159,https://tabelog.com/osaka/A2701/A270101/27118512/dtlmenu/drink/
スーパードライブラック 生ビール,605,焼きとん、焼酎バー、豚料理,串焼き 焼とんyaたゆたゆ お初天神店,大阪府 大阪市北区 曽根崎 2-10-7 1F,050-5571-6865,34.7009597,135.5007968,https://tabelog.com/osaka/A2701/A270101/27084212/dtlmenu/drink/
スーパードライ中瓶,660,中華料理、餃子、バル・バール,中華バル サワダ,大阪府 大阪市北区 曾根崎2-9-17 お初天神裏参道,050-5456-0897,34.7004648,135.5008857,https://tabelog.com/osaka/A2701/A270101/27113311/dtlmenu/drink/
ドスエキスラガー,803,メキシコ料理、居酒屋、焼鳥,墨国回転鶏料理 天満店,大阪府 大阪市北区 池田町 8-4,050-5868-5965,34.7069705,135.5131622,https://tabelog.com/osaka/A2701/A270103/27011009/dtlmenu/drink/
ドメーヌ・ド・ラ・サントリーヌ ペイ・ドック・コロンバール 2015,4400,フレンチ、串揚げ・串かつ、イノベーティブ・フュージョン,フレンチ串揚げ BEIGNET,大阪府 大阪市北区 芝田 2-5-6 ニュー共栄ビル 1F,06-6292-2626,34.7065234,135.495826,https://tabelog.com/osaka/A2701/A270101/27096328/dtlmenu/drink/
ハイネケン,600,バル・バール、ビストロ、フレンチ,ONZORO. ,大阪府 大阪市北区 天神橋 3-10-8 与力町スカイハイツ 101,050-5590-0899,34.7020123,135.5124158,https://tabelog.com/osaka/A2701/A270103/27080839/dtlmenu/drink/
ハイネケン,900,カフェ、パンケーキ、紅茶専門店,ロカンダ,大阪府 大阪市北区 角田町 8-7 阪急うめだ本店  12F,06-6313-1517,34.7028186,135.4985323,https://tabelog.com/osaka/A2701/A270101/27068333/dtlmenu/drink/
ハイネケン エクストラコールド,770,ステーキ、イタリアン、ビストロ,カルネジーオ ウエスト,大阪府 大阪市北区 芝田 1-6-2 茶屋町あるこ,050-3628-4656,34.7067778,135.4984087,https://tabelog.com/osaka/A2701/A270101/27110278/dtlmenu/drink/
ハイネケン エクストラコールド,935,ビアバー、ダイニングバー、洋食・欧風料理（その他）,ビアブルグ 梅田,大阪府 大阪市北区 芝田 1-8-1 D.D.HOUSE  1F,06-6375-2461,34.7070549,135.4973708,https://tabelog.com/osaka/A2701/A270101/27053633/dtlmenu/drink/
ハイネケン 瓶,660,タイ料理、バル・バール、バイキング,クンテープ ルクア大阪店,大阪府 大阪市北区 梅田 3-1-3 ルクア大阪 B2F,050-5457-8789,34.7029403,135.4955499,https://tabelog.com/osaka/A2701/A270101/27101630/dtlmenu/drink/
ハイネケン(瓶ビール・330ml),600,ロシア料理、西洋各国料理（その他）、ダイニングバー,モスクワプリュスシェミ,大阪府 大阪市北区 梅田 1-3-1 大阪駅前第1ビル  B1F,050-5869-1217,34.6988863,135.4964525,https://tabelog.com/osaka/A2701/A270101/27051100/dtlmenu/drink/
ハイネケン/ギネス スタウト,1600,ラウンジ、カフェ、バー,ザ ロビーラウンジ,大阪府 大阪市北区 梅田 2-5-25 ザ・リッツ・カールトン大阪  1F,06-6343-7020,34.69834,135.4925207,https://tabelog.com/osaka/A2701/A270101/27000698/dtlmenu/drink/
ハイネケンextra cold,500,担々麺、ラーメン、中華料理,麻辣担々麺 堂島,大阪府 大阪市北区 堂島 2-1-27,06-6453-1168,34.6962018,135.4944061,https://tabelog.com/osaka/A2701/A270101/27074695/dtlmenu/drink/
ハイネケン★ボトル,580,タイ料理、タイカレー、ダイニングバー,タイ料理 スワンナプームタイ 大阪,大阪府 大阪市北区 梅田 1-11-4 大阪駅前第4ビル  B2F,06-6343-2790,34.699879,135.4988566,https://tabelog.com/osaka/A2701/A270101/27066949/dtlmenu/drink/
ハートランドビール(瓶),370,パスタ、ピザ、イタリアン,中崎パスタ店 山根屋,大阪府 大阪市北区 中崎 2-3-9,050-5593-5648,34.7082776,135.505851,https://tabelog.com/osaka/A2701/A270101/27088840/dtlmenu/drink/
ハートランドビール(瓶),715,カフェ、パンケーキ,パンケーキ＆ブックス ビブリオテーク,大阪府 大阪市北区 大深町 4-20 グランフロント大阪 　ショップ＆レストラン南館 1Ｆ,06-6359-1389,34.7053491,135.4945979,https://tabelog.com/osaka/A2701/A270101/27071977/dtlmenu/drink/
パーフェクト黒ラベル,720,バル・バール、イタリアン、カフェ,ケラケラ クランツ,大阪府 大阪市北区 小松原町 2-4 大阪富国生命ビル　B2F,050-5868-2965,34.70217,135.5000915,https://tabelog.com/osaka/A2701/A270101/27053066/dtlmenu/drink/
ヒューガルデン,900,ダイニングバー、イタリアン、パスタ,シャンデリア テーブル,大阪府 大阪市北区 角田町 8-7 阪急うめだ本店  13F,050-3504-0300,34.7028186,135.4985323,https://tabelog.com/osaka/A2701/A270101/27068362/dtlmenu/drink/
ヒューガルデン ホワイト,1000,イタリアン、バー、バル・バール,ゼックスウエスト ザ バー,大阪府 大阪市北区 梅田 2-2-22 ハービスPLAZA ENT  7F,050-5868-9945,34.6997829,135.4945698,https://tabelog.com/osaka/A2701/A270101/27003895/dtlmenu/drink/
ヒューガルデン ホワイト,968,とんかつ、洋食、カレー（その他）,epais,大阪府 大阪市北区 曽根崎新地 1-9-3 ニュー華ビル 3F,050-5890-4534,34.6982594,135.4988228,https://tabelog.com/osaka/A2701/A270101/27072441/dtlmenu/drink/
ヒューガルデン ホワイト 小瓶,800,イタリアン、フレンチ、バル・バール,キュイジーヌ・MA,大阪府 大阪市北区 堂島 1-3-8 堂島リンデンビル  1Ｆ,06-6345-2206,34.6964857,135.4979799,https://tabelog.com/osaka/A2701/A270101/27011707/dtlmenu/drink/
ヒューガルデン ロゼ,968,とんかつ、洋食、カレー（その他）,epais,大阪府 大阪市北区 曽根崎新地 1-9-3 ニュー華ビル 3F,050-5890-4534,34.6982594,135.4988228,https://tabelog.com/osaka/A2701/A270101/27072441/dtlmenu/drink/
ヒューガルデンホワイト,1300,ステーキ、ダイニングバー、ワインバー,ウルフギャング・ステーキハウス 大阪店,大阪府 大阪市北区 梅田 3-1-3 ルクア イーレ 10Ｆ,050-5571-6855,34.7028866,135.4953236,https://tabelog.com/osaka/A2701/A270101/27084039/dtlmenu/drink/
ヒューガルデンホワイト,700,バル・バール、ビストロ、フレンチ,ONZORO. ,大阪府 大阪市北区 天神橋 3-10-8 与力町スカイハイツ 101,050-5590-0899,34.7020123,135.5124158,https://tabelog.com/osaka/A2701/A270103/27080839/dtlmenu/drink/
ヒューガルデンホワイト,850,洋食、ビストロ、ワインバー,ビストロ テソロン ウナ ベッコ,大阪府 大阪市北区 大淀中 2-4-12 パナッシュコート梅田北 1F,050-5869-5402,34.7034584,135.485508,https://tabelog.com/osaka/A2701/A270108/27045748/dtlmenu/drink/
ヒューガルデン・ホワイト,950,イタリアン、ピザ、パスタ,MAKIBI,大阪府 大阪市北区 西天満 3-1-27 メビウス西天満ビル 1F,050-5596-7690,34.6943123,135.5091563,https://tabelog.com/osaka/A2701/A270102/27108201/dtlmenu/drink/
ビール(スーパードライ:中瓶),480,飲茶・点心、中華料理、居酒屋,上海食苑 本店 ,大阪府 大阪市北区 池田町 12-4,050-5594-1759,34.7077323,135.5132805,https://tabelog.com/osaka/A2701/A270103/27000509/dtlmenu/drink/
ビール(ハイネケン),880,フレンチ、ビストロ、洋食・欧風料理（その他）,ビストロ・ド・ヨシモト,大阪府 大阪市北区 中津 1-5-3,050-5890-8748,34.7099321,135.4956456,https://tabelog.com/osaka/A2701/A270101/27003966/dtlmenu/drink/
フレッシュオレンジジュース(生搾り),850,カフェ、コーヒー専門店、紅茶専門店,Cafe AMADEUS STORY,大阪府 大阪市北区 中之島 3-6-32 ダイビル本館  1F,050-5570-5158,34.6932271,135.4928343,https://tabelog.com/osaka/A2701/A270108/27073953/dtlmenu/drink/
ブルックリンラガー,800,ステーキ、アメリカ料理、バイキング,ロウリーズ・ザ・プライムリブ 大阪,大阪府 大阪市北区 梅田 2-2-22 ハービスPLAZA ENT  5F,050-5593-4617,34.6997829,135.4945698,https://tabelog.com/osaka/A2701/A270101/27018310/dtlmenu/drink/
ブルックリンラガー,1250,ステーキ、ダイニングバー、ワインバー,ウルフギャング・ステーキハウス 大阪店,大阪府 大阪市北区 梅田 3-1-3 ルクア イーレ 10Ｆ,050-5571-6855,34.7028866,135.4953236,https://tabelog.com/osaka/A2701/A270101/27084039/dtlmenu/drink/
ブルックリンラガー 生ビール,1200,中華料理、中華麺（その他）、ビストロ,Az/ビーフン東 大阪店,大阪府 大阪市北区 西天満 4-4-8 B1F,050-5596-4963,34.6975565,135.5047462,https://tabelog.com/osaka/A2701/A270103/27060666/dtlmenu/drink/
ブルックリンラガーsmall,700,ダイニングバー、フレンチ、ビアホール・ビアレストラン,中之島ソーシャルイートアウェイク,大阪府 大阪市北区 中之島 1-1-27 大阪市中央公会堂 B1F,050-5589-6233,34.6935479,135.5039827,https://tabelog.com/osaka/A2701/A270101/27085674/dtlmenu/drink/
プレミアムモルツ,1210,懐石・会席料理、和食（その他）,北新地 大嵓埜,大阪府 大阪市北区 曽根崎新地 1-3-23 北新地FOODEARビル 3F,050-5868-7777,34.6977162,135.4961491,https://tabelog.com/osaka/A2701/A270101/27092596/dtlmenu/drink/
プレミアムモルツ,830,寿司、魚介料理・海鮮料理、天ぷら,おらんく家 北新地西店,大阪府 大阪市北区 曽根崎新地 1-5-3,050-5872-7656,34.6992233,135.5088433,https://tabelog.com/osaka/A2701/A270101/27007240/dtlmenu/drink/
プレミアムモルツ,550,創作料理、バル・バール、ビストロ,Takeichi,大阪府 大阪市北区 曽根崎新地 1-9-15 ２F,050-3628-7228,34.6982594,135.4988228,https://tabelog.com/osaka/A2701/A270101/27061565/dtlmenu/drink/
プレミアムモルツ,650,そば、割烹・小料理、創作料理,大幸庵 玄,大阪府 大阪市北区 堂島 1-2-2 堂栄ビル　１Ｆ,06-6344-5655,34.6962122,135.4995908,https://tabelog.com/osaka/A2701/A270101/27018661/dtlmenu/drink/
プレミアムモルツ,550,寿司、魚介料理・海鮮料理、割烹・小料理,鮨仙酢 本店 大阪駅前,大阪府 大阪市北区 芝田 1-3-7,050-5869-8270,34.7059162,135.4974555,https://tabelog.com/osaka/A2701/A270101/27120324/dtlmenu/drink/
プレミアムモルツ サッポロエビス,1045,懐石・会席料理、割烹・小料理、天ぷら,北瑞苑,大阪府 大阪市北区 曽根崎新地 2-3-21 ａｘビル　３Ｆ,050-5868-3897,34.6979945,135.4945578,https://tabelog.com/osaka/A2701/A270101/27000742/dtlmenu/drink/
プレミアムモルツ マスターズドリーム,1210,懐石・会席料理、和食（その他）,北新地 大嵓埜,大阪府 大阪市北区 曽根崎新地 1-3-23 北新地FOODEARビル 3F,050-5868-7777,34.6977162,135.4961491,https://tabelog.com/osaka/A2701/A270101/27092596/dtlmenu/drink/
プレミアムモルツ 中ジョッキ,275,インド料理、インドカレー、居酒屋・ダイニングバー（その他）,シュリアルナ 第3ビル店,大阪府 大阪市北区 梅田 1-1-3 大阪駅前第3ビル  B1F,06-6345-5211,34.6988257,135.4992804,https://tabelog.com/osaka/A2701/A270101/27004766/dtlmenu/drink/
プレミアムモルツ(生),800,イタリアン、野菜料理、カフェ,il desiderio ORTAGGIO,大阪府 大阪市北区 角田町 8-7 阪急うめだ本店  12F,050-5868-3005,34.7028186,135.4985323,https://tabelog.com/osaka/A2701/A270101/27068441/dtlmenu/drink/
プレミアムモルツ中,660,寿司、割烹・小料理、魚介料理・海鮮料理,鮨 仙酢 総本店,大阪府 大阪市北区 曾根崎新地1-5-32 ボネールビル B1F,050-5869-2107,34.6975723,135.4978879,https://tabelog.com/osaka/A2701/A270101/27119787/dtlmenu/drink/
プレミアムモルツ小,440,寿司、割烹・小料理、魚介料理・海鮮料理,鮨 仙酢 総本店,大阪府 大阪市北区 曾根崎新地1-5-32 ボネールビル B1F,050-5869-2107,34.6975723,135.4978879,https://tabelog.com/osaka/A2701/A270101/27119787/dtlmenu/drink/
プレミアムモルツ瓶,660,焼肉、居酒屋、冷麺,清次郎,大阪府 大阪市北区 曽根崎新地 1丁目10-16 永楽ビル　B1F,050-5589-4836,34.69764,135.4958679,https://tabelog.com/osaka/A2701/A270101/27017667/dtlmenu/drink/
プレミアムモルツ生中,660,焼肉、居酒屋、冷麺,清次郎,大阪府 大阪市北区 曽根崎新地 1丁目10-16 永楽ビル　B1F,050-5589-4836,34.69764,135.4958679,https://tabelog.com/osaka/A2701/A270101/27017667/dtlmenu/drink/
プレミアムモルツ生小,605,焼肉、居酒屋、冷麺,清次郎,大阪府 大阪市北区 曽根崎新地 1丁目10-16 永楽ビル　B1F,050-5589-4836,34.69764,135.4958679,https://tabelog.com/osaka/A2701/A270101/27017667/dtlmenu/drink/
プレミアムモルツ神泡 生ビール(中),660,焼鳥、居酒屋、串焼き,わっちょい,大阪府 大阪市北区 天神橋 5-2-5,050-5571-8066,34.7073077,135.5118818,https://tabelog.com/osaka/A2701/A270103/27062943/dtlmenu/drink/
プレミアム・モルツ 瓶,750,割烹・小料理、天ぷら、おでん,ご馳走 ね音,大阪府 大阪市北区 天神橋 5-3-22 安田ビル 2F,050-5597-8331,34.7077688,135.5121856,https://tabelog.com/osaka/A2701/A270103/27096416/dtlmenu/drink/
メッツァコロナ カステル・フィルミャン テロルデゴ・ロタ,4950,魚介料理・海鮮料理、割烹・小料理、懐石・会席料理,ろっこん,大阪府 大阪市北区 曽根崎新地 1-1-15,050-5869-7586,34.6939689,135.5059383,https://tabelog.com/osaka/A2701/A270101/27052272/dtlmenu/drink/
メッツァコロナ カステル・フィルミャン ピノ・グリージョ,4950,魚介料理・海鮮料理、割烹・小料理、懐石・会席料理,ろっこん,大阪府 大阪市北区 曽根崎新地 1-1-15,050-5869-7586,34.6939689,135.5059383,https://tabelog.com/osaka/A2701/A270101/27052272/dtlmenu/drink/
メッツァコロナ ピノ・グリージョ レゼルヴァ,6600,串揚げ・串かつ、居酒屋、鉄板焼き,北新地 串柾,大阪府 大阪市北区 曽根崎新地 1-2-28 シスタービル B1F,050-5868-8071,34.7002187,135.5010362,https://tabelog.com/osaka/A2701/A270101/27066528/dtlmenu/drink/
モルツ・ザ・ドラフト《中瓶》,660,飲茶・点心、中華料理、餃子,香港海鮮飲茶樓 ブリーゼブリーゼ,大阪府 大阪市北区 梅田 2-4-9 ブリーゼブリーゼ  6F,050-5869-6862,34.6986205,135.4939534,https://tabelog.com/osaka/A2701/A270101/27018185/dtlmenu/drink/
モルツ中瓶,748,中華料理、居酒屋、中華麺（その他）,北新地　響香,大阪府 大阪市北区 曽根崎新地 1-1-41 アストリアジロービル1F,050-5570-6387,34.6966913,135.5004286,https://tabelog.com/osaka/A2701/A270101/27081144/dtlmenu/drink/
ラオス産 ビアラオ ラガー,759,タイ料理、アジア・エスニック料理（その他）、バイキング,コサムイ バイ チェディルアン,大阪府 大阪市北区 梅田 2-2-22 ハービスエント 3F,06-6346-0606,34.6997829,135.4945698,https://tabelog.com/osaka/A2701/A270101/27079063/dtlmenu/drink/
ヱビス,770,バル・バール、イタリアン、カフェ,ケラケラ クランツ,大阪府 大阪市北区 小松原町 2-4 大阪富国生命ビル　B2F,050-5868-2965,34.70217,135.5000915,https://tabelog.com/osaka/A2701/A270101/27053066/dtlmenu/drink/
ヱビス プレミアムブラック,730,バル・バール、イタリアン、カフェ,ケラケラ クランツ,大阪府 大阪市北区 小松原町 2-4 大阪富国生命ビル　B2F,050-5868-2965,34.70217,135.5000915,https://tabelog.com/osaka/A2701/A270101/27053066/dtlmenu/drink/
・アサヒ スーパードライ,800,洋食・欧風料理（その他）、創作料理、ステーキ,SALLE A MANGER KADOYA,大阪府 大阪市北区 曾根崎新地1-5-2 大川ビル本館　Ｂ１Ｆ,06-6346-8837,34.6976257,135.4977774,https://tabelog.com/osaka/A2701/A270101/27010782/dtlmenu/drink/
・アサヒスーパードライ(中瓶),500,中華料理、飲茶・点心、居酒屋,焼賣太樓 桜橋店,大阪府 大阪市北区 梅田 2-1-16,06-6341-7061,34.6994133,135.4953013,https://tabelog.com/osaka/A2701/A270101/27004267/dtlmenu/drink/
・生ビール     キリン一番搾り,550,東南アジア料理（その他）、カレー（その他）,マレーシア ボレ,大阪府 大阪市北区 大淀南 1-4-20,050-5868-6979,34.7037615,135.4898985,https://tabelog.com/osaka/A2701/A270101/27004497/dtlmenu/drink/
・生ビール(アサヒスーパードライ),500,中華料理、飲茶・点心、居酒屋,焼賣太樓 桜橋店,大阪府 大阪市北区 梅田 2-1-16,06-6341-7061,34.6994133,135.4953013,https://tabelog.com/osaka/A2701/A270101/27004267/dtlmenu/drink/
・青島ビール(瓶),680,中華料理、飲茶・点心、居酒屋,焼賣太樓 桜橋店,大阪府 大阪市北区 梅田 2-1-16,06-6341-7061,34.6994133,135.4953013,https://tabelog.com/osaka/A2701/A270101/27004267/dtlmenu/drink/
一番搾り生ビール,605,イタリアン、フレンチ、ダイニングバー,ペスカ 北新地店,大阪府 大阪市北区 曽根崎新地 1-3-8 ぐらんぱれ壱番館 1F,050-5571-1489,34.6974845,135.4964887,https://tabelog.com/osaka/A2701/A270101/27082395/dtlmenu/drink/
炭酸水 サントリープレミアムソーダ,350,割烹・小料理、魚介料理・海鮮料理、鍋（その他）,同心町 和食 瑞,大阪府 大阪市北区 同心 2-4-13 ヴェール同心 1F,050-5456-2430,34.702401,135.5140549,https://tabelog.com/osaka/A2701/A270103/27113675/dtlmenu/drink/
琥珀エビス,550,イタリアン,ラ スピーゴラ,大阪府 大阪市北区 西天満 3-6-1,06-6311-6333,34.6964519,135.5081832,https://tabelog.com/osaka/A2701/A270103/27017779/dtlmenu/drink/
瓶ビール (アサヒスーパードライ 中瓶),600,中華料理、四川料理、担々麺,中国郷菜館 大陸風,大阪府 大阪市北区 天神橋 2北1-9,050-5592-0952,34.6979341,135.5120843,https://tabelog.com/osaka/A2701/A270103/27009580/dtlmenu/drink/
瓶ビール アサヒ スーパードライ,850,しゃぶしゃぶ、すき焼き、和食（その他）,北新地しゃぶしゃぶ きらく,大阪府 大阪市北区 堂島 1-2-7 パーマリィイン堂島 B1F,050-5872-9714,34.6962883,135.4991444,https://tabelog.com/osaka/A2701/A270101/27128587/dtlmenu/drink/
瓶ビール キリン 一番搾り,850,しゃぶしゃぶ、すき焼き、和食（その他）,北新地しゃぶしゃぶ きらく,大阪府 大阪市北区 堂島 1-2-7 パーマリィイン堂島 B1F,050-5872-9714,34.6962883,135.4991444,https://tabelog.com/osaka/A2701/A270101/27128587/dtlmenu/drink/
瓶ビール クラシックラガー(中瓶),450,焼肉、ホルモン,万両 南森町店,大阪府 大阪市北区 南森町 1-2-14 ロイヤルハイツ　１Ｆ,06-6361-1371,34.6962687,135.5097088,https://tabelog.com/osaka/A2701/A270103/27002291/dtlmenu/drink/
瓶ビール サッポロ 黒ラベル,850,しゃぶしゃぶ、すき焼き、和食（その他）,北新地しゃぶしゃぶ きらく,大阪府 大阪市北区 堂島 1-2-7 パーマリィイン堂島 B1F,050-5872-9714,34.6962883,135.4991444,https://tabelog.com/osaka/A2701/A270101/27128587/dtlmenu/drink/
瓶ビール サントリー ザ・モルツ,850,しゃぶしゃぶ、すき焼き、和食（その他）,北新地しゃぶしゃぶ きらく,大阪府 大阪市北区 堂島 1-2-7 パーマリィイン堂島 B1F,050-5872-9714,34.6962883,135.4991444,https://tabelog.com/osaka/A2701/A270101/27128587/dtlmenu/drink/
瓶ビール ザ・モルツ,440,インド料理、インドカレー、居酒屋・ダイニングバー（その他）,シュリアルナ 第3ビル店,大阪府 大阪市北区 梅田 1-1-3 大阪駅前第3ビル  B1F,06-6345-5211,34.6988257,135.4992804,https://tabelog.com/osaka/A2701/A270101/27004766/dtlmenu/drink/
瓶ビール(アサヒ・サッポロ),660,しゃぶしゃぶ、和食（その他）、居酒屋,お菜屋 わだ家 大阪お初天神店,大阪府 大阪市北区 曽根崎 2-8-9 八幸ビル　１Ｆ,050-5869-8124,34.6996825,135.500852,https://tabelog.com/osaka/A2701/A270101/27011306/dtlmenu/drink/
瓶ビール(エビス・プレミアムモルツ),850,居酒屋、ふぐ、すっぽん,馳走や純平,大阪府 大阪市北区 曽根崎新地 1-5-25 ジェイ・プライド梅田永楽ビル 5F,06-6341-5228,34.6978875,135.497667,https://tabelog.com/osaka/A2701/A270101/27014760/dtlmenu/drink/
瓶ビール(キリン 一番搾り 、 サッポロ赤星),650,焼鳥、鳥料理、居酒屋,鶏家 たちばな,大阪府 大阪市北区 天神橋 3-11-5,050-5868-5966,34.7027819,135.512333,https://tabelog.com/osaka/A2701/A270103/27011116/dtlmenu/drink/
瓶ビール(キリンハートランド小瓶),900,中華料理、四川料理、広東料理,中菜Labo.朝陽,大阪府 大阪市北区 堂島 1-3-8 堂島リンデンビル  B1F,050-5571-3045,34.6964857,135.4979799,https://tabelog.com/osaka/A2701/A270101/27081015/dtlmenu/drink/
瓶ビール(サントリープレミアムモルツ小瓶),700,中華料理、四川料理、広東料理,中菜Labo.朝陽,大阪府 大阪市北区 堂島 1-3-8 堂島リンデンビル  B1F,050-5571-3045,34.6964857,135.4979799,https://tabelog.com/osaka/A2701/A270101/27081015/dtlmenu/drink/
瓶ビール(ヱビス 中瓶),800,和食（その他）、魚介料理・海鮮料理、ラーメン,はまぐり庵,大阪府 大阪市北区 角田町 8-47 阪急グランドビル  28F,050-5589-0378,34.7029862,135.4990478,https://tabelog.com/osaka/A2701/A270101/27065187/dtlmenu/drink/
瓶ビール(青島ビールプレミアム),850,中華料理、四川料理、広東料理,中菜Labo.朝陽,大阪府 大阪市北区 堂島 1-3-8 堂島リンデンビル  B1F,050-5571-3045,34.6964857,135.4979799,https://tabelog.com/osaka/A2701/A270101/27081015/dtlmenu/drink/
瓶ビール/スーパードライ,550,居酒屋、鳥料理、立ち飲み居酒屋・バー,宮崎酒場 ゑびす,大阪府 大阪市北区 梅田 3-1-3 ルクア  イーレ B2F,06-6151-1540,34.7028866,135.4953236,https://tabelog.com/osaka/A2701/A270101/27084553/dtlmenu/drink/
瓶ビール<アサヒスーパードライ>(中瓶),649,焼肉、韓国料理、ステーキ,吟味屋 天満店,大阪府 大阪市北区 山崎町 2-15,06-6366-4129,34.7060377,135.5095427,https://tabelog.com/osaka/A2701/A270103/27011939/dtlmenu/drink/
瓶ビール[ザ・プレミアムモルツ (中瓶)],600,広東料理、四川料理、中華料理,広東名菜   紅茶,大阪府 大阪市北区 天満 4-17-17 双園マンション 1F,06-6352-3838,34.695599,135.5138965,https://tabelog.com/osaka/A2701/A270103/27077603/dtlmenu/drink/
瓶ビール〈キリン〉大瓶,980,中華料理、飲茶・点心、ダイニングバー,中国料理 青冥 堂島本店,大阪府 大阪市北区 堂島浜 1-3-18 堂島セントラルビル 1F,050-5868-8967,34.695764,135.4973172,https://tabelog.com/osaka/A2701/A270101/27000227/dtlmenu/drink/
瓶ビール〈キリンラガー・アサヒスーパードライ〉中瓶,800,中華料理、飲茶・点心、ダイニングバー,中国料理 青冥 堂島本店,大阪府 大阪市北区 堂島浜 1-3-18 堂島セントラルビル 1F,050-5868-8967,34.695764,135.4973172,https://tabelog.com/osaka/A2701/A270101/27000227/dtlmenu/drink/
瓶ビール〈サントリー ザ・プレミアムモルツ〉中瓶,800,中華料理、飲茶・点心、ダイニングバー,中国料理 青冥 堂島本店,大阪府 大阪市北区 堂島浜 1-3-18 堂島セントラルビル 1F,050-5868-8967,34.695764,135.4973172,https://tabelog.com/osaka/A2701/A270101/27000227/dtlmenu/drink/
瓶ビール中(アサヒスーパードライ),580,ふぐ,ふぐやさでん,大阪府 大阪市北区 黒崎町 9-5,06-6375-7355,34.7074679,135.5077352,https://tabelog.com/osaka/A2701/A270101/27013491/dtlmenu/drink/
生ビール アサヒスーパードライ,770,焼肉、しゃぶしゃぶ、もつ鍋,黒毛和牛肉匠 いちえ 本邸,大阪府 大阪市北区 曽根崎新地 1-9-9 谷安ロワビル 1F,050-5868-8018,34.6977557,135.4989097,https://tabelog.com/osaka/A2701/A270101/27044096/dtlmenu/drink/
生ビール アサヒスーパードライ,990,鉄板焼き、牛料理、ステーキ,ステーキ＆ワイン シュバルージュ,大阪府 大阪市北区 堂島 1-4-2 ビールディング北新地B1,06-6456-4777,34.696101,135.4982009,https://tabelog.com/osaka/A2701/A270101/27008427/dtlmenu/drink/
生ビール アサヒドライプレミアム豊醸 (330ml),560,イタリアン、パスタ、西洋各国料理（その他）,オステリア ガウダンテ 大阪駅前第4ビル店,大阪府 大阪市北区 梅田 1-11-4 大阪駅前第4ビル  B1F,050-5868-4994,34.699879,135.4988566,https://tabelog.com/osaka/A2701/A270101/27002094/dtlmenu/drink/
生ビール アサヒマルエル,630,イタリアン、バル・バール、炭火焼き,炭火イタリアン CARBO,大阪府 大阪市北区 堂山町 16-12 中通りレジャービル 104,050-5589-9451,34.7041811,135.502684,https://tabelog.com/osaka/A2701/A270101/27087636/dtlmenu/drink/
生ビール キリンハートランド,500,アジア・エスニック料理（その他）、東南アジア料理（その他）、ダイニングバー,オリエンタルスプーン 西天満店,大阪府 大阪市北区 西天満 4-9-12,050-5592-7561,34.6977558,135.5039007,https://tabelog.com/osaka/A2701/A270103/27094256/dtlmenu/drink/
生ビール キリン一番搾り,700,水炊き、ステーキ、すき焼き,道頓堀 あかい 北店,大阪府 大阪市北区 堂島 1-3-33 新地萬年ビル  1F,080-9406-3654,34.6967601,135.4982745,https://tabelog.com/osaka/A2701/A270101/27074209/dtlmenu/drink/
生ビール キリン一番搾り,900,しゃぶしゃぶ、すき焼き、和食（その他）,北新地しゃぶしゃぶ きらく,大阪府 大阪市北区 堂島 1-2-7 パーマリィイン堂島 B1F,050-5872-9714,34.6962883,135.4991444,https://tabelog.com/osaka/A2701/A270101/27128587/dtlmenu/drink/
生ビール キリン一番絞り,550,串揚げ・串かつ、和食（その他）,北新地　串かつ凡,大阪府 大阪市北区 堂島 1-3-16 堂島メリーセンタービル B1F,06-6344-0400,34.6966074,135.4972251,https://tabelog.com/osaka/A2701/A270101/27016793/dtlmenu/drink/
生ビール サントリー プレミアムモルツ,715,ステーキ、イタリアン、ビストロ,カルネジーオ ウエスト,大阪府 大阪市北区 芝田 1-6-2 茶屋町あるこ,050-3628-4656,34.7067778,135.4984087,https://tabelog.com/osaka/A2701/A270101/27110278/dtlmenu/drink/
生ビール サントリー香るエール,500,割烹・小料理、焼肉、ステーキ,北新地 つきしろ,大阪府 大阪市北区 曽根崎新地 1-9-12 フォーシーズンフロント 3F,050-5890-4528,34.6978068,135.4986243,https://tabelog.com/osaka/A2701/A270101/27122992/dtlmenu/drink/
生ビール ザ・プレミアムモルツ,670,カフェ、野菜料理、ケーキ,Cafe Bougnat Bougnat ブリーゼブリーゼ,大阪府 大阪市北区 梅田 2-4-9 ブリーゼブリーゼ  B1F,06-6343-7166,34.6986205,135.4939534,https://tabelog.com/osaka/A2701/A270101/27018167/dtlmenu/drink/
生ビール 香るプレミアムモルツ,748,串揚げ・串かつ、和食（その他）,串揚げ タケナカ,大阪府 大阪市北区 堂島 1-3-4 谷安ビル Ｂ01号,050-5590-1510,34.6963789,135.4982009,https://tabelog.com/osaka/A2701/A270101/27088890/dtlmenu/drink/
生ビール(アサヒ スーパードライ),940,懐石・会席料理、割烹・小料理、ふぐ,雅しゅとうとう,大阪府 大阪市北区 堂島 1-5-2 フェザービル 1F,06-6348-0141,34.696056,135.4968569,https://tabelog.com/osaka/A2701/A270101/27012489/dtlmenu/drink/
生ビール(アサヒスパードライ),880,串揚げ・串かつ、居酒屋、鉄板焼き,北新地 串柾,大阪府 大阪市北区 曽根崎新地 1-2-28 シスタービル B1F,050-5868-8071,34.7002187,135.5010362,https://tabelog.com/osaka/A2701/A270101/27066528/dtlmenu/drink/
生ビール(アサヒスーパードライ),800,中華料理、四川料理、広東料理,中菜Labo.朝陽,大阪府 大阪市北区 堂島 1-3-8 堂島リンデンビル  B1F,050-5571-3045,34.6964857,135.4979799,https://tabelog.com/osaka/A2701/A270101/27081015/dtlmenu/drink/
生ビール(アサヒビール),800,寿司、魚介料理・海鮮料理、割烹・小料理,鮨 惣五郎,大阪府 大阪市北区 曽根崎新地 1-3-32 新地リバティービル 1F,050-5596-8038,34.6975177,135.496995,https://tabelog.com/osaka/A2701/A270101/27077129/dtlmenu/drink/
生ビール(アサヒ熟選),660,フレンチ、ビストロ,LIAISON UMEDA,大阪府 大阪市北区 梅田 1-13-13 阪神梅田本店 9F,050-5570-8979,34.7012797,135.4983196,https://tabelog.com/osaka/A2701/A270101/27125521/dtlmenu/drink/
生ビール(エビスビール),780,焼肉、すき焼き、しゃぶしゃぶ,和牛 まつした 上通り店,大阪府 大阪市北区 曽根崎新地 1-3-30 北新地幸田ビル2F,050-5589-9133,34.69651,135.5018094,https://tabelog.com/osaka/A2701/A270101/27086935/dtlmenu/drink/
生ビール(キリン ハートランド),600,焼鳥、鳥料理、居酒屋,鶏家 たちばな,大阪府 大阪市北区 天神橋 3-11-5,050-5868-5966,34.7027819,135.512333,https://tabelog.com/osaka/A2701/A270103/27011116/dtlmenu/drink/
生ビール(キリン 一番搾り),580,ベトナム料理、アジア・エスニック料理（その他）、南アジア料理（その他）,ベトナム酒場　ビアホイ,大阪府 大阪市北区 角田町 2-15 城口ビル　Ｂ１Ｆ,06-6292-2345,34.704967,135.501159,https://tabelog.com/osaka/A2701/A270101/27000284/dtlmenu/drink/
生ビール(キリン一番搾り),600,しゃぶしゃぶ、和食（その他）、居酒屋,お菜屋 わだ家 大阪お初天神店,大阪府 大阪市北区 曽根崎 2-8-9 八幸ビル　１Ｆ,050-5869-8124,34.6996825,135.500852,https://tabelog.com/osaka/A2701/A270101/27011306/dtlmenu/drink/
生ビール(サッポロ黒ラベル),720,和食（その他）、魚介料理・海鮮料理、ラーメン,はまぐり庵,大阪府 大阪市北区 角田町 8-47 阪急グランドビル  28F,050-5589-0378,34.7029862,135.4990478,https://tabelog.com/osaka/A2701/A270101/27065187/dtlmenu/drink/
生ビール(スーパードライ),700,居酒屋、ふぐ、すっぽん,馳走や純平,大阪府 大阪市北区 曽根崎新地 1-5-25 ジェイ・プライド梅田永楽ビル 5F,06-6341-5228,34.6978875,135.497667,https://tabelog.com/osaka/A2701/A270101/27014760/dtlmenu/drink/
生ビール(ブルックリンラガー)(ブルックリンソラチエース),720,ベトナム料理、アジア・エスニック料理（その他）、南アジア料理（その他）,ベトナム酒場　ビアホイ,大阪府 大阪市北区 角田町 2-15 城口ビル　Ｂ１Ｆ,06-6292-2345,34.704967,135.501159,https://tabelog.com/osaka/A2701/A270101/27000284/dtlmenu/drink/
生ビール(神泡のザ・プレミアムモルツ),715,割烹・小料理、鳥料理、魚介料理・海鮮料理,北新地 空海,大阪府 大阪市北区 曽根崎新地 1-9-13,050-5597-8866,34.6982594,135.4988228,https://tabelog.com/osaka/A2701/A270101/27118000/dtlmenu/drink/
生ビール/アサヒスーパードライ,580,フレンチ、ワインバー、ビストロ,ル コントワ,大阪府 大阪市北区 曽根崎 2-10-10 第2あーけるびる 1F お初天神裏参道,050-5592-7351,34.70049,135.500746,https://tabelog.com/osaka/A2701/A270101/27084355/dtlmenu/drink/
生ビール/スーパードライ,490,居酒屋、鳥料理、立ち飲み居酒屋・バー,宮崎酒場 ゑびす,大阪府 大阪市北区 梅田 3-1-3 ルクア  イーレ B2F,06-6151-1540,34.7028866,135.4953236,https://tabelog.com/osaka/A2701/A270101/27084553/dtlmenu/drink/
生ビール<ザ・プレミアムモルツ> (中),627,焼肉、韓国料理、ステーキ,吟味屋 天満店,大阪府 大阪市北区 山崎町 2-15,06-6366-4129,34.7060377,135.5095427,https://tabelog.com/osaka/A2701/A270103/27011939/dtlmenu/drink/
生ビール<ザ・プレミアムモルツ> (小),517,焼肉、韓国料理、ステーキ,吟味屋 天満店,大阪府 大阪市北区 山崎町 2-15,06-6366-4129,34.7060377,135.5095427,https://tabelog.com/osaka/A2701/A270103/27011939/dtlmenu/drink/
生ビール[ザ・プレミアムモルツ],500,広東料理、四川料理、中華料理,広東名菜   紅茶,大阪府 大阪市北区 天満 4-17-17 双園マンション 1F,06-6352-3838,34.695599,135.5138965,https://tabelog.com/osaka/A2701/A270103/27077603/dtlmenu/drink/
生ビール『サントリー ザ・プレミアム・モルツ』,580,バル・バール、イタリアン、居酒屋,炭火焼とワインの酒場 VOLTA 北新地店,大阪府 大阪市北区 曽根崎新地 1-3-23 FOODEARビル 1F,050-5570-2477,34.6977231,135.496139,https://tabelog.com/osaka/A2701/A270101/27019177/dtlmenu/drink/
生ビールキリン一番搾り(中),495,焼肉、ホルモン、居酒屋,旨味熟成肉専門 焼肉 ふじ山,大阪府 大阪市北区 天神橋 3-1-15 天3館ビル 2F,050-5597-4123,34.6993373,135.511827,https://tabelog.com/osaka/A2701/A270103/27110828/dtlmenu/drink/
生ビール中(アサヒスーパードライ),530,ふぐ,ふぐやさでん,大阪府 大阪市北区 黒崎町 9-5,06-6375-7355,34.7074679,135.5077352,https://tabelog.com/osaka/A2701/A270101/27013491/dtlmenu/drink/
生搾り オレンジ,700,お好み焼き、居酒屋、レストラン（その他）,尾道 むらかみ,大阪府 大阪市北区 堂島 1-3-9 日宝堂島センタービル  1Ｆ,050-5868-1178,34.6965586,135.4976854,https://tabelog.com/osaka/A2701/A270101/27004637/dtlmenu/drink/
生搾りパイナップルチューハイ,748,しゃぶしゃぶ、豚しゃぶ、和食（その他）,しゃぶ亭 西梅田店,大阪府 大阪市北区 梅田 2-1-15,050-5868-8975,34.6993055,135.4952369,https://tabelog.com/osaka/A2701/A270101/27003519/dtlmenu/drink/
神泡のザ・プレミアム・モルツ,550,牛タン、居酒屋、炭火焼き,伊達屋,大阪府 大阪市北区 梅田 1-3-1 大阪駅前第1ビル  B2F,050-5571-3016,34.6988863,135.4964525,https://tabelog.com/osaka/A2701/A270101/27002140/dtlmenu/drink/
神泡のザ・プレミアム・モルツ生中,600,お好み焼き、居酒屋、レストラン（その他）,尾道 むらかみ,大阪府 大阪市北区 堂島 1-3-9 日宝堂島センタービル  1Ｆ,050-5868-1178,34.6965586,135.4976854,https://tabelog.com/osaka/A2701/A270101/27004637/dtlmenu/drink/
青島ビール,600,中華料理、四川料理、担々麺,中国郷菜館 大陸風,大阪府 大阪市北区 天神橋 2北1-9,050-5592-0952,34.6979341,135.5120843,https://tabelog.com/osaka/A2701/A270103/27009580/dtlmenu/drink/
青島ビール,680,中華料理、餃子、バル・バール,中華バル サワダ,大阪府 大阪市北区 曾根崎2-9-17 お初天神裏参道,050-5456-0897,34.7004648,135.5008857,https://tabelog.com/osaka/A2701/A270101/27113311/dtlmenu/drink/
青島ビール,600,中華料理、餃子、担々麺,サワダ飯店,大阪府 大阪市北区 小松原町 2-4 富国生命ビル B2F,050-5872-2200,34.7022777,135.5002261,https://tabelog.com/osaka/A2701/A270101/27120248/dtlmenu/drink/
青島ビール 小瓶,850,中華料理、広東料理、魚介料理・海鮮料理,中国料理 燦宮,大阪府 大阪市北区 大淀中 1-1-88 梅田スカイビル 39F,050-5597-5453,34.7052872,135.4896527,https://tabelog.com/osaka/A2701/A270101/27000691/dtlmenu/drink/
青島ビール(330ml),480,飲茶・点心、中華料理、居酒屋,上海食苑 本店 ,大阪府 大阪市北区 池田町 12-4,050-5594-1759,34.7077323,135.5132805,https://tabelog.com/osaka/A2701/A270103/27000509/dtlmenu/drink/
青島ビール(中国),780,かに、シンガポール料理、シーフード,シンガポール・シーフード・リパブリック 大丸梅田,大阪府 大阪市北区 梅田 3-1-1 大丸梅田店  14F,050-5571-1403,34.701789,135.4965763,https://tabelog.com/osaka/A2701/A270101/27055314/dtlmenu/drink/
青島ビール《330ml瓶》,550,飲茶・点心、中華料理、餃子,香港海鮮飲茶樓 ブリーゼブリーゼ,大阪府 大阪市北区 梅田 2-4-9 ブリーゼブリーゼ  6F,050-5869-6862,34.6986205,135.4939534,https://tabelog.com/osaka/A2701/A270101/27018185/dtlmenu/drink/
青島ビール小瓶,825,中華料理、広東料理,中国菜エスサワダ,大阪府 大阪市北区 西天満 4-6-28 ニュー真砂ビル 1F,050-5592-8876,34.696289,135.5050684,https://tabelog.com/osaka/A2701/A270102/27095063/dtlmenu/drink/
